City_ID,City,Lat,Lng,Max Temp,Humidity,Cloudiness,Wind Speed,Country,Date
0,kruisfontein,-34.0033,24.7314,20.53000000000003,39,51,11.34,ZA,1724768861
1,port-aux-francais,-49.35,70.2167,2.990000000000009,75,6,8.11,TF,1724768862
2,soure,-0.7167,-48.5233,31.03000000000003,61,38,3.76,BR,1724768736
3,ilulissat,69.2167,-51.1,4.010000000000048,100,75,1.54,GL,1724768719
4,rongelap,11.1635,166.8941,28.390000000000043,82,100,9.24,MH,1724768865
5,keflavik,64.0049,-22.5624,10.240000000000009,87,100,3.6,IS,1724768866
6,edinburgh of the seven seas,-37.0676,-12.3116,10.120000000000005,68,100,8.13,SH,1724768867
7,jamestown,42.097,-79.2353,22.80000000000001,88,75,2.06,US,1724768837
8,petropavlovsk-kamchatsky,53.0452,158.6483,11.330000000000041,76,75,2.0,RU,1724768870
9,saint-louis,16.3333,-15.0,35.48000000000002,46,24,5.12,SN,1724768871
10,puerto natales,-51.7236,-72.4875,7.25,57,75,4.63,CL,1724768872
11,enewetak,11.3474,162.3373,28.840000000000032,76,100,8.02,MH,1724768873
12,nalut,30.3333,10.85,36.83000000000004,15,4,2.21,LY,1724768874
13,blackmans bay,-43.0167,147.3167,7.07000000000005,92,100,1.34,AU,1724768875
14,college,64.8569,-147.8028,8.580000000000041,86,75,3.09,US,1724768876
15,yellowknife,62.456,-114.3525,15.230000000000018,93,75,3.6,CA,1724768877
16,troitsko-pechorsk,62.7084,56.1964,21.470000000000027,66,71,1.25,RU,1724768878
17,tiksi,71.6872,128.8694,2.0300000000000296,87,100,3.66,RU,1724768879
18,nema,57.5067,50.5011,25.52000000000004,54,0,2.15,RU,1724768881
19,thunder bay,48.4001,-89.3168,20.99000000000001,64,75,4.63,CA,1724768882
20,bilibino,68.0546,166.4372,6.960000000000036,93,100,0.78,RU,1724768650
21,el rama,12.1596,-84.2195,24.710000000000036,94,100,1.43,NI,1724768884
22,adamstown,-25.066,-130.1015,19.600000000000023,71,100,9.46,PN,1724768885
23,uturoa,-16.7333,-151.4333,24.170000000000016,71,100,8.19,PF,1724768886
24,aleksandrovsk-sakhalinskiy,50.8975,142.1561,14.850000000000023,93,0,1.97,RU,1724768888
25,waitangi,-43.9535,-176.5597,11.57000000000005,98,100,3.13,NZ,1724768851
26,ribeira grande,38.5167,-28.7,26.54000000000002,57,20,5.36,PT,1724768891
27,grytviken,-54.2811,-36.5092,3.7200000000000273,83,99,3.87,GS,1724768892
28,jiuquan,39.7432,98.5174,25.08000000000004,43,54,2.49,CN,1724768893
29,ghat,24.9647,10.1728,37.76000000000005,13,5,1.58,LY,1724768894
30,itapui,-22.2333,-48.7192,21.150000000000034,16,0,3.56,BR,1724768786
31,ushuaia,-54.8,-68.3,4.810000000000002,70,20,2.06,AR,1724768896
32,hamilton,39.1834,-84.5333,29.850000000000023,63,0,3.09,US,1724768875
33,fisterra,42.9049,-9.2629,19.02000000000004,81,5,5.38,ES,1724768898
34,mata-utu,-13.2816,-176.1745,26.30000000000001,76,42,2.7,WF,1724768899
35,san luis de la loma,17.2706,-100.8939,27.200000000000045,83,93,1.17,MX,1724768900
36,saipan,15.1355,145.701,27.390000000000043,89,0,2.57,MP,1724768747
37,ujae,8.9322,165.7642,28.57000000000005,76,94,6.13,MH,1724768903
38,mahina,-17.5065,-149.489,19.870000000000005,73,20,2.57,PF,1724768904
39,galliano,29.4422,-90.2992,28.620000000000005,73,99,3.01,US,1724768905
40,tura,25.5198,90.2201,24.439999999999998,95,21,1.42,IN,1724768906
41,glace bay,46.1969,-59.957,24.53000000000003,60,40,5.14,CA,1724768727
42,ankang,32.68,109.0172,25.439999999999998,75,60,1.81,CN,1724768909
43,port lincoln,-34.7333,135.8667,15.230000000000018,76,50,13.18,AU,1724768910
44,igarka,67.4667,86.5833,13.550000000000011,93,92,1.6,RU,1724768911
45,howard springs,-12.497,131.047,24.950000000000045,84,96,1.18,AU,1724768912
46,abomsa,9.9833,39.9833,28.29000000000002,50,83,2.54,ET,1724768914
47,piacabucu,-10.4056,-36.4344,26.340000000000032,67,89,4.29,BR,1724768915
48,rawson,-43.3002,-65.1023,9.160000000000025,40,0,9.26,AR,1724768916
49,papatowai,-46.5619,169.4708,8.879999999999995,94,43,2.69,NZ,1724768917
50,puerto ayora,-0.7393,-90.3518,18.640000000000043,98,99,2.24,EC,1724768918
51,hawaiian paradise park,19.5933,-154.9731,22.160000000000025,98,100,1.54,US,1724768919
52,mount isa,-20.7333,139.5,15.870000000000005,51,0,0.0,AU,1724768920
53,jianshui,23.6363,102.8264,20.850000000000023,85,3,0.29,CN,1724768921
54,daru,-9.0763,143.2092,24.939999999999998,79,21,6.74,PG,1724768922
55,masuguru,-11.3667,38.4167,33.99000000000001,29,100,0.77,TZ,1724768923
56,albany,42.6001,-73.9662,23.230000000000018,79,1,0.89,US,1724768836
57,ponta delgada,37.7333,-25.6667,26.400000000000034,57,20,6.69,PT,1724768926
58,olonkinbyen,70.9221,-8.7187,3.1000000000000227,86,96,4.33,SJ,1724768927
59,sinop,41.7711,34.8709,21.939999999999998,81,61,3.19,TR,1724768928
60,nova sintra,14.8667,-24.7167,27.02000000000004,75,100,1.77,CV,1724768929
61,prince george,53.9166,-122.753,9.689999999999998,93,100,3.6,CA,1724768930
62,bethel,41.3712,-73.414,25.5,69,0,0.45,US,1724768931
63,klaksvik,62.2266,-6.589,11.28000000000003,99,100,10.0,FO,1724768932
64,punta arenas,-53.15,-70.9167,5.060000000000002,81,40,9.26,CL,1724768933
65,vernon,50.2581,-119.2691,14.860000000000014,94,88,0.51,CA,1724768935
66,wailua homesteads,22.0669,-159.378,25.439999999999998,71,75,6.69,US,1724768937
67,chiva,39.4667,-0.7167,30.430000000000007,36,25,5.51,ES,1724768938
68,lerwick,60.1545,-1.1494,14.410000000000025,91,100,11.58,GB,1724768939
69,makueni boma,-1.8041,37.6203,23.930000000000007,55,97,4.59,KE,1724768941
70,hastings,50.8552,0.5729,22.860000000000014,69,100,3.02,GB,1724768942
71,howrah,22.5892,88.3103,28.0,89,40,2.57,IN,1724768943
72,chichiriviche,10.9333,-68.2772,29.590000000000032,67,9,2.68,VE,1724768944
73,ponnuru,16.0667,80.5667,31.100000000000023,82,100,2.28,IN,1724768946
74,hermanus,-34.4187,19.2345,9.330000000000041,81,100,16.4,ZA,1724768947
75,fonte boa,-2.4959,-66.2662,30.07000000000005,48,2,1.96,BR,1724768948
76,rockport,28.0206,-97.0544,29.03000000000003,83,0,3.6,US,1724768940
77,mogadishu,2.0371,45.3438,26.58000000000004,80,59,6.68,SO,1724768950
78,kone,-21.0595,164.8658,19.950000000000045,78,73,2.58,NC,1724768951
79,kirsanov,52.6549,42.7224,30.05000000000001,27,4,3.18,RU,1724768952
80,remire-montjoly,4.9167,-52.2667,31.02000000000004,66,75,1.54,GF,1724768953
81,dasnapur,19.654,78.5121,25.80000000000001,84,42,3.07,IN,1724768954
82,hasaki,35.7333,140.8333,27.230000000000018,82,92,7.95,JP,1724768955
83,qaqortoq,60.7167,-46.0333,7.400000000000034,64,67,2.32,GL,1724768956
84,ardestan,33.3761,52.3694,38.960000000000036,8,25,3.61,IR,1724768958
85,kutulik,53.3508,102.7839,15.410000000000025,70,29,0.71,RU,1724768959
86,san antonio de pale,-1.4014,5.6325,23.620000000000005,82,96,6.07,GQ,1724768960
87,st. john's,47.5649,-52.7093,17.760000000000048,94,100,4.92,CA,1724768839
88,podgorica,42.4411,19.2636,36.879999999999995,22,20,4.63,ME,1724768756
89,kapuskasing,49.4169,-82.4331,16.05000000000001,88,100,5.14,CA,1724768808
90,thompson,55.7435,-97.8558,11.090000000000032,76,20,2.57,CA,1724768964
91,east london,-33.0153,27.9116,25.52000000000004,47,0,5.14,ZA,1724768721
92,guerrero negro,27.9769,-114.0611,20.450000000000045,83,4,4.58,MX,1724768966
93,invercargill,-46.4,168.35,8.340000000000032,94,74,0.89,NZ,1724768967
94,salinopolis,-0.6136,-47.3561,29.850000000000023,69,7,4.11,BR,1724768968
95,el sauzal de rodriguez,31.9,-116.6833,18.560000000000002,65,4,1.22,MX,1724768970
96,san rafael,-34.6177,-68.3301,11.860000000000014,41,68,4.64,AR,1724768824
97,stanley,54.868,-1.6985,17.010000000000048,82,20,4.12,GB,1724768972
98,chonchi,-42.6128,-73.8092,7.2900000000000205,71,43,0.62,CL,1724768973
99,ipinda,-9.4833,33.9,26.640000000000043,53,41,2.82,TZ,1724768974
100,tralee,52.2704,-9.7026,17.140000000000043,100,75,4.12,IE,1724768975
101,portland,45.5234,-122.6762,16.450000000000045,85,100,0.89,US,1724768509
102,nikolayevsk-on-amure,53.1406,140.73,13.550000000000011,90,0,0.52,RU,1724768977
103,kerikeri,-35.2268,173.9474,8.28000000000003,92,100,1.73,NZ,1724768978
104,kamina,-8.7386,24.9906,33.76000000000005,13,11,2.99,CD,1724768979
105,lebu,-37.6167,-73.65,7.960000000000036,73,34,3.83,CL,1724768980
106,krosno odrzanskie,52.0549,15.0988,26.170000000000016,30,3,3.24,PL,1724768982
107,iskateley,67.6803,53.1512,18.650000000000034,55,90,3.24,RU,1724768984
108,susuman,62.7833,148.1667,9.439999999999998,85,100,1.0,RU,1724768985
109,ishikawa,26.4233,127.8214,30.189999999999998,84,20,8.75,JP,1724768986
110,saint-francois,46.4154,3.9054,25.930000000000007,51,0,2.57,FR,1724768987
111,constantia,44.1833,28.65,25.390000000000043,67,94,9.63,RO,1724768988
112,nogliki,51.8333,143.1667,14.07000000000005,95,4,3.72,RU,1724768989
113,colonia,50.9333,6.95,28.360000000000014,39,0,4.12,DE,1724768725
114,el calafate,-50.3408,-72.2768,1.5500000000000114,70,100,0.66,AR,1724768992
115,novo aripuana,-5.1206,-60.3797,34.210000000000036,30,5,1.92,BR,1724768993
116,longyearbyen,78.2186,15.6401,5.82000000000005,86,100,4.37,SJ,1724768994
117,west island,-12.1568,96.8225,26.99000000000001,78,99,8.75,CC,1724768995
118,isafjordur,66.0755,-23.124,9.020000000000039,76,0,3.09,IS,1724768996
119,sandnessjoen,66.0217,12.6316,14.120000000000005,67,75,10.29,NO,1724768997
120,zhanaozen,43.3,52.8,32.450000000000045,16,0,3.71,KZ,1724768998
121,itoman,26.1247,127.6694,30.220000000000027,84,40,9.77,JP,1724768999
122,mumford,5.2618,-0.759,24.49000000000001,87,98,6.99,GH,1724769000
123,aasiaat,68.7098,-52.8699,2.230000000000018,98,100,2.92,GL,1724769001
124,anadyr,64.75,177.4833,2.2800000000000296,87,0,2.0,RU,1724768909
125,prince rupert,54.3161,-130.3201,10.830000000000041,99,75,2.57,CA,1724769004
126,independence,39.0911,-94.4155,29.230000000000018,60,0,1.54,US,1724768877
127,bredasdorp,-34.5322,20.0403,8.800000000000011,84,100,12.69,ZA,1724769006
128,fort st. john,56.2499,-120.8529,9.939999999999998,93,75,2.06,CA,1724768842
129,avarua,-21.2078,-159.775,23.03000000000003,83,75,12.86,CK,1724769008
130,mathura,27.5,77.6833,27.920000000000016,80,100,3.18,IN,1724769009
131,qui nhon,13.7667,109.2333,25.03000000000003,91,54,3.24,VN,1724769010
132,happy valley-goose bay,53.3168,-60.3315,27.170000000000016,44,75,8.23,CA,1724769012
133,lompoc,34.6391,-120.4579,13.07000000000005,95,100,2.06,US,1724769013
134,beruniy,41.6911,60.7525,29.980000000000018,30,0,4.12,UZ,1724769015
135,ridgecrest,35.6225,-117.6709,20.920000000000016,22,0,0.0,US,1724769016
136,sault ste. marie,46.5168,-84.3333,22.160000000000025,94,20,2.57,CA,1724769017
137,iqaluit,63.7506,-68.5145,4.850000000000023,100,100,2.06,CA,1724769019
138,tobelo,1.7284,128.0095,26.980000000000018,80,7,1.2,ID,1724769020
139,ust-nera,64.5667,143.2,4.840000000000032,94,100,0.71,RU,1724769021
140,ingeniero jacobacci,-41.3427,-69.5448,4.020000000000039,42,0,2.13,AR,1724769022
141,kapa'a,22.0752,-159.319,26.180000000000007,71,75,6.69,US,1724768795
142,ciudad melchor muzquiz,27.8833,-101.5167,25.57000000000005,73,30,1.34,MX,1724769024
143,port-vila,-17.7338,168.3219,16.78000000000003,100,20,1.03,VU,1724769026
144,sitka,57.0531,-135.33,10.939999999999998,82,75,0.0,US,1724768939
145,antonio enes,-16.2325,39.9086,25.310000000000002,72,21,5.46,MZ,1724769028
146,hithadhoo,-0.6,73.0833,28.850000000000023,73,44,4.21,MV,1724769029
147,kiffa,16.6166,-11.4045,39.48000000000002,31,100,7.84,MR,1724769030
148,adrar,20.5022,-10.0711,42.78000000000003,15,56,7.13,MR,1724769031
149,dalcahue,-42.3628,-73.7022,7.890000000000043,87,0,2.57,CL,1724769032
150,cesme,38.3228,26.3064,29.840000000000032,51,20,4.12,TR,1724769034
151,pisco,-13.7,-76.2167,16.680000000000007,82,75,2.06,PE,1724769035
152,holbrook,40.8123,-73.0784,25.930000000000007,80,20,3.09,US,1724769036
153,morondava,-20.2833,44.2833,24.640000000000043,69,0,4.76,MG,1724769038
154,fort bragg,35.139,-79.006,28.910000000000025,63,0,2.06,US,1724769039
155,pandan,14.0453,124.1694,26.370000000000005,85,97,4.49,PH,1724769040
156,port moresby,-9.4431,147.1797,24.680000000000007,78,40,5.14,PG,1724769041
157,anchorage,61.2181,-149.9003,14.020000000000039,61,100,7.2,US,1724768889
158,vilyuchinsk,52.9306,158.4028,12.150000000000034,88,100,2.04,RU,1724769043
159,christchurch,-43.5333,172.6333,9.410000000000025,85,17,4.92,NZ,1724769001
160,copala,16.65,-98.9833,27.49000000000001,73,98,0.89,MX,1724769045
161,port alfred,-33.5906,26.891,21.210000000000036,70,0,10.39,ZA,1724769046
162,georgetown,5.4112,100.3354,26.640000000000043,88,20,5.14,MY,1724768959
163,nuuk,64.1835,-51.7216,8.340000000000032,81,75,2.06,GL,1724769049
164,greymouth,-42.4667,171.2,8.080000000000041,91,49,0.69,NZ,1724769050
165,ila orangun,8.0167,4.9,24.210000000000036,90,98,4.44,NG,1724769051
166,taco pozo,-25.6167,-63.2833,20.420000000000016,22,94,2.37,AR,1724769052
167,nishinoomote,30.7333,131.0,27.53000000000003,88,100,16.17,JP,1724769053
168,moyale,3.5167,39.0584,25.27000000000004,51,95,5.2,KE,1724769054
169,queenstown,-31.8976,26.8753,22.439999999999998,12,0,15.02,ZA,1724769055
170,templin,53.1186,13.5022,26.340000000000032,33,6,2.65,DE,1724769056
171,port elizabeth,-33.918,25.5701,21.160000000000025,80,0,10.29,ZA,1724769057
172,xinyuan,37.3,99.0,10.57000000000005,95,15,0.35,CN,1724769059
173,atakpame,7.5333,1.1333,25.58000000000004,83,100,3.48,TG,1724769060
174,si satchanalai,17.5169,99.7598,25.470000000000027,93,99,0.52,TH,1724769061
175,san martin de los andes,-40.1604,-71.3486,1.3900000000000432,66,23,2.31,AR,1724768842
176,lazaro cardenas,17.9583,-102.2,28.82000000000005,73,66,1.43,MX,1724769063
177,namibe,-15.1961,12.1522,19.700000000000045,77,26,4.85,AO,1724769064
178,isangel,-19.55,169.2667,20.230000000000018,75,0,4.45,VU,1724769065
179,kingston,17.997,-76.7936,29.53000000000003,74,75,1.54,JM,1724769027
180,coquimbo,-29.9533,-71.3436,11.100000000000023,87,100,2.06,CL,1724769012
181,belfast,54.5833,-5.9333,20.900000000000034,60,100,6.17,GB,1724768918
182,puerto san jose,13.9256,-90.8244,27.25,80,100,2.08,GT,1724769070
183,codrington,-38.2667,141.9667,13.260000000000048,88,100,10.7,AU,1724769071
184,gizo,-8.103,156.8419,26.640000000000043,82,100,5.18,SB,1724769072
185,kununurra,-15.7667,128.7333,23.99000000000001,57,100,1.03,AU,1724769073
186,sirte,31.2089,16.5887,30.27000000000004,52,0,6.48,LY,1724769074
187,kodiak,57.79,-152.4072,11.730000000000018,94,75,4.12,US,1724769075
188,narrabri,-30.3167,149.7833,14.610000000000014,56,0,2.04,AU,1724768799
189,whitehorse,60.7161,-135.0538,5.430000000000007,80,75,4.63,CA,1724769077
190,margaret river,-33.95,115.0667,12.840000000000032,65,39,4.13,AU,1724769079
191,tidjikja,18.5564,-11.4271,40.33000000000004,23,94,6.87,MR,1724769080
192,tataouine,32.9297,10.4518,33.910000000000025,18,1,6.75,TN,1724769081
193,haimen,23.1935,116.6142,27.29000000000002,86,100,3.09,CN,1724769082
194,ola,59.5833,151.2833,10.439999999999998,97,100,1.32,RU,1724769083
195,cloquet,46.7216,-92.4594,18.379999999999995,96,100,4.63,US,1724769085
196,ventnor,50.5948,-1.2037,22.460000000000036,75,89,3.01,GB,1724769086
197,ulladulla,-35.35,150.4667,18.78000000000003,43,99,5.9,AU,1724769087
198,corner brook,48.9667,-57.9484,24.129999999999995,63,98,1.71,CA,1724768969
199,gemena,3.25,19.7667,34.26000000000005,38,72,1.63,CD,1724769089
200,margate,51.3813,1.3862,24.83000000000004,55,100,1.34,GB,1724769090
201,strelka,58.0728,93.0344,13.110000000000014,98,90,2.3,RU,1724769091
202,onega,63.9061,38.1404,17.439999999999998,63,62,3.6,RU,1724769092
203,dudinka,69.4058,86.1778,14.020000000000039,95,96,1.37,RU,1724769093
204,saint croix,17.7397,-64.7388,31.090000000000032,73,75,4.12,VI,1724769095
205,alesund,62.4723,6.1549,13.890000000000043,82,75,6.69,NO,1724769096
206,tolanaro,-25.0319,46.9987,24.04000000000002,73,20,11.83,MG,1724769097
207,la'ie,21.6477,-157.9253,24.5,78,92,4.02,US,1724769098
208,pratt,37.6439,-98.7376,27.910000000000025,55,2,3.54,US,1724769099
209,dass,10.0,9.5167,29.660000000000025,63,84,2.43,NG,1724769100
210,noyabrsk,63.1994,75.4507,17.939999999999998,71,83,3.26,RU,1724769101
211,san juan colorado,16.4586,-97.9536,26.140000000000043,79,91,0.55,MX,1724769102
212,loen,7.7601,168.2307,28.83000000000004,73,100,4.66,MH,1724769103
213,bamboo flat,11.7,92.7167,26.05000000000001,89,100,3.6,IN,1724769104
214,myitkyina,25.3833,97.4,25.78000000000003,91,99,0.33,MM,1724769105
215,la sierpe,21.7717,-79.2684,29.920000000000016,66,80,2.66,CU,1724769107
216,kilindoni,-7.9139,39.6668,25.620000000000005,80,9,5.1,TZ,1724769108
217,union,40.6334,-74.2663,27.480000000000018,65,0,1.54,US,1724769109
218,cockburn town,21.4612,-71.1419,28.680000000000007,75,8,6.14,TC,1724769110
219,peniche,39.3558,-9.3811,20.870000000000005,81,4,5.85,PT,1724769111
220,manjo,4.8428,9.8217,25.52000000000004,80,79,1.76,CM,1724769112
221,doganhisar,38.1463,31.6765,21.850000000000023,51,44,1.48,TR,1724769113
222,siwa oasis,29.2041,25.5195,37.870000000000005,20,1,3.98,EG,1724769114
223,geraldton,-28.7667,114.6,17.230000000000018,94,100,3.6,AU,1724769115
224,bankim,6.083,11.4905,28.379999999999995,62,29,1.51,CM,1724769116
225,oppdal,62.5943,9.6912,13.050000000000011,58,100,5.14,NO,1724769118
226,puerto baquerizo moreno,-0.9,-89.6,18.55000000000001,94,75,5.14,EC,1724769119
227,maintirano,-18.0667,44.0167,25.090000000000032,72,6,4.62,MG,1724769120
228,aoulef,26.9667,1.0833,44.26000000000005,9,4,1.5,DZ,1724769121
229,vorgashor,67.5833,63.95,16.210000000000036,61,96,2.79,RU,1724769122
230,pombas,17.1503,-25.0201,20.370000000000005,77,99,3.54,CV,1724769123
231,safi,32.1667,-8.8333,34.120000000000005,18,0,6.73,MA,1724769124
232,berdigestyakh,62.0989,126.6992,6.830000000000041,62,100,0.66,RU,1724769125
233,taber,49.8167,-112.1518,15.0,58,90,4.12,CA,1724769007
234,springfield,37.2153,-93.2982,27.720000000000027,74,100,3.13,US,1724769073
235,polyarnyy,69.1989,33.4478,14.860000000000014,57,79,11.75,RU,1724769128
236,kavaratti,10.5669,72.642,27.410000000000025,86,91,4.53,IN,1724769130
237,fredericton,45.9454,-66.6656,23.58000000000004,74,0,2.57,CA,1724768916
238,saldanha,-33.0117,17.9442,13.03000000000003,71,86,12.59,ZA,1724769134
239,khovd,48.0056,91.6419,21.30000000000001,29,100,1.21,MN,1724769135
240,klyuchi,52.2667,79.1667,17.24000000000001,59,90,2.39,RU,1724769136
241,island harbour,50.724,-1.2758,23.04000000000002,59,84,3.41,GB,1724769137
242,lagos,6.5833,3.75,27.77000000000004,75,75,4.97,NG,1724768917
243,saint-philippe,-21.3585,55.7679,19.910000000000025,81,18,6.47,RE,1724769139
244,udachny,66.4167,112.4,9.420000000000016,70,89,0.94,RU,1724769140
245,flying fish cove,-10.4217,105.6791,24.82000000000005,83,75,6.69,CX,1724769143
246,fallon,39.4735,-118.7774,11.930000000000007,43,0,1.54,US,1724769144
247,mount gambier,-37.8333,140.7667,11.920000000000016,89,100,8.41,AU,1724769145
248,vila do maio,15.1333,-23.2167,27.480000000000018,78,100,0.21,CV,1724769146
249,weno,7.4515,151.8468,29.090000000000032,74,81,4.08,FM,1724769147
250,jayapura,-2.5333,140.7,25.660000000000025,92,84,1.96,ID,1724769148
251,horta,38.5333,-28.6333,25.80000000000001,68,20,5.14,PT,1724769003
252,abadeh,31.1608,52.6506,28.689999999999998,11,0,3.61,IR,1724769150
253,atafu village,-8.5421,-172.5159,27.78000000000003,76,71,5.16,TK,1724769151
254,ocean city,39.2776,-74.5746,27.879999999999995,74,0,2.24,US,1724769134
255,camana,-16.6228,-72.7111,16.900000000000034,75,64,4.23,PE,1724769154
256,acarau,-2.8856,-40.12,31.82000000000005,52,7,6.69,BR,1724769155
257,monticello,45.3055,-93.7941,20.189999999999998,94,75,2.57,US,1724769146
258,cabo san lucas,22.8909,-109.9124,29.860000000000014,51,4,1.08,MX,1724769157
259,andratx,39.5755,2.4202,29.560000000000002,52,1,3.01,ES,1724769158
260,teknaf,20.8624,92.3058,26.670000000000016,89,100,3.47,BD,1724769159
261,arraial do cabo,-22.9661,-42.0278,20.920000000000016,52,0,3.09,BR,1724768942
262,tambacounda,13.7539,-13.7586,32.03000000000003,70,75,4.12,SN,1724769161
263,benghazi,32.1167,20.0667,29.360000000000014,62,1,4.49,LY,1724769163
264,sikasso,10.9167,-7.0,22.189999999999998,96,100,4.24,ML,1724769165
265,bansi,27.1833,82.9333,27.100000000000023,85,91,2.89,IN,1724769166
266,mthatha,-31.5889,28.7844,32.31,5,0,10.29,ZA,1724769167
267,walvis bay,-22.9575,14.5053,18.400000000000034,62,7,11.95,NA,1724769168
268,taoudenni,22.6783,-3.9836,47.05000000000001,7,0,6.97,ML,1724769169
269,hit,33.6416,42.8251,42.39000000000004,11,0,2.6,IQ,1724769170
270,richards bay,-28.783,32.0377,28.79000000000002,37,0,3.76,ZA,1724769171
271,rawala kot,33.8578,73.7604,17.670000000000016,74,82,3.16,PK,1724769173
272,san francisco de la paz,14.9,-86.2,25.930000000000007,72,81,0.42,HN,1724769175
273,tubarjal,30.4999,38.216,37.160000000000025,18,88,2.92,SA,1724769176
274,extrema,-22.8547,-46.3183,22.600000000000023,22,0,1.25,BR,1724769177
275,urumqi,43.801,87.6005,20.53000000000003,68,100,3.0,CN,1724769178
276,talnakh,69.4865,88.3972,13.550000000000011,96,99,1.19,RU,1724769179
277,sulak,43.2734,47.5146,26.200000000000045,64,37,6.64,RU,1724769180
278,kirakira,-10.4544,161.9205,24.960000000000036,86,100,5.85,SB,1724769181
279,kattivakkam,13.2167,80.3167,31.05000000000001,82,100,3.35,IN,1724769182
280,monteagudo,-19.8167,-63.9833,21.260000000000048,26,1,1.61,BO,1724769183
281,itaituba,-4.2761,-55.9836,32.09000000000003,58,100,4.63,BR,1724769061
282,crane,31.3974,-102.3501,25.33000000000004,60,0,2.68,US,1724769186
283,el alto,-4.2714,-81.2147,20.720000000000027,73,75,2.97,PE,1724769187
284,broadstairs,51.3591,1.4394,24.870000000000005,55,100,1.34,GB,1724769188
285,kyosai,34.8503,128.5886,24.470000000000027,88,100,11.76,KR,1724769189
286,taulaga,-11.0553,-171.0883,27.0,77,52,3.36,AS,1724769190
287,havelberg,52.8309,12.0755,27.710000000000036,38,24,1.34,DE,1724769191
288,ugoofaaru,5.6667,73.0,28.310000000000002,71,86,1.53,MV,1724769192
289,ancud,-41.8697,-73.8203,7.689999999999998,72,53,2.88,CL,1724769193
290,rio grande,-32.035,-52.0986,13.840000000000032,76,34,1.57,BR,1724768904
291,lubang,13.8584,120.124,27.310000000000002,87,100,9.89,PH,1724769195
292,launceston,-41.45,147.1667,9.800000000000011,87,100,11.32,AU,1724769197
293,hadibu,12.65,54.0333,27.939999999999998,73,100,6.64,YE,1724769198
294,mammoth lakes,37.6485,-118.9721,2.400000000000034,56,0,0.0,US,1724769199
295,port mathurin,-19.6833,63.4167,21.260000000000048,66,87,12.78,MU,1724769200
296,paramonga,-10.6667,-77.8333,18.480000000000018,81,87,3.5,PE,1724769132
297,weining,26.85,104.2333,16.640000000000043,86,2,0.54,CN,1724769202
298,jaisalmer,26.9147,70.9181,28.350000000000023,68,82,8.74,IN,1724769203
299,egilsstadir,65.2653,-14.3948,9.950000000000045,81,75,5.66,IS,1724769204
300,taro,-8.3862,115.28,18.430000000000007,96,100,0.47,ID,1724769205
301,masterton,-40.9597,175.6575,10.360000000000014,91,100,4.01,NZ,1724769206
302,chokwe,-24.5333,32.9833,33.29000000000002,15,0,3.78,MZ,1724769208
303,desvres,50.6688,1.8348,24.420000000000016,74,43,3.9,FR,1724769209
304,bel ombre,-4.6167,55.4167,25.910000000000025,89,75,7.72,SC,1724769210
305,batsari,12.7515,7.2447,27.340000000000032,71,99,3.23,NG,1724769211
306,labrador city,52.9463,-66.9114,21.77000000000004,63,75,7.72,CA,1724769010
307,afaahiti,-17.75,-149.2833,21.57000000000005,75,97,8.24,PF,1724769213
308,broken hill,-31.95,141.4333,16.439999999999998,28,26,8.56,AU,1724769215
309,balykshi,47.0667,51.8667,30.0,20,0,6.0,KZ,1724769216
310,vung tau,10.346,107.0843,27.930000000000007,80,32,4.57,VN,1724769217
311,tual,-5.6667,132.75,25.660000000000025,85,96,10.18,ID,1724769030
312,berezovyy,51.6667,135.7,15.04000000000002,96,42,1.21,RU,1724769220
313,mizdah,31.4451,12.9801,35.120000000000005,18,31,1.82,LY,1724769221
314,porto velho,-8.7619,-63.9039,26.03000000000003,34,7,3.6,BR,1724769222
315,loango,-4.6719,11.8312,24.82000000000005,74,75,4.02,CG,1724769223
316,port blair,11.6667,92.75,26.02000000000004,89,100,3.6,IN,1724769224
317,tabou,4.423,-7.3528,23.560000000000002,88,100,5.16,CI,1724769225
318,minas de matahambre,22.5887,-83.9447,29.980000000000018,63,28,3.22,CU,1724769226
319,bikenibeu village,1.3673,173.1241,28.980000000000018,84,40,3.09,KI,1724769227
320,aras-asan,8.8908,126.3033,26.140000000000043,86,100,1.58,PH,1724769228
321,dali,25.7,100.1833,18.379999999999995,86,21,0.46,CN,1724769229
322,pueblo nuevo,23.3833,-105.3833,17.260000000000048,65,16,0.59,MX,1724769231
323,forster,-32.1667,152.5167,11.830000000000041,100,31,3.47,AU,1724769232
324,auki,-8.7676,160.7034,24.060000000000002,92,100,1.49,SB,1724769233
325,san patricio,28.017,-97.5169,27.970000000000027,57,54,1.39,US,1724769234
326,valparaiso,-33.0393,-71.6273,16.129999999999995,64,0,1.54,CL,1724768997
327,kill devil hills,36.0307,-75.676,27.77000000000004,80,0,3.09,US,1724769236
328,palmer,42.1584,-72.3287,25.170000000000016,57,0,1.52,US,1724769237
329,kallar kahar,32.7833,72.7,25.310000000000002,79,46,1.88,PK,1724769238
330,kiama,-34.6833,150.8667,20.140000000000043,40,99,3.58,AU,1724769239
331,plouzane,48.3833,-4.6167,25.100000000000023,50,0,4.63,FR,1724769240
332,abu zabad,12.35,29.25,25.610000000000014,78,98,6.51,SD,1724769242
333,peterhead,57.5058,-1.7981,15.360000000000014,88,100,9.94,GB,1724769243
334,pionerskiy,54.9508,20.2275,21.910000000000025,59,4,2.05,RU,1724769244
335,caleta de carquin,-11.0925,-77.6267,17.870000000000005,81,83,3.06,PE,1724769245
336,marsabit,2.3284,37.9899,26.010000000000048,39,34,8.55,KE,1724769246
337,ampanihy,-24.7,44.75,24.75,38,0,5.3,MG,1724769247
338,mo i rana,66.3128,14.1428,11.29000000000002,89,75,1.54,NO,1724769248
339,coyhaique,-45.5752,-72.0662,3.590000000000032,90,100,2.11,CL,1724769005
340,san blas,21.5167,-105.2667,28.390000000000043,70,86,0.74,MX,1724769250
341,kalmunai,7.4167,81.8167,29.340000000000032,70,77,1.42,LK,1724769251
342,al majaridah,19.1236,41.9111,31.79000000000002,62,96,4.23,SA,1724769253
343,talata mafara,12.5732,6.0597,29.590000000000032,63,100,3.79,NG,1724769254
344,ad dabbah,18.05,30.95,34.910000000000025,40,82,5.1,SD,1724769255
345,slave lake,55.2834,-114.769,12.990000000000009,82,75,3.09,CA,1724769256
346,haren,52.7833,7.2333,25.060000000000002,41,100,3.09,DE,1724769257
347,quepos,9.4236,-84.1652,27.510000000000048,80,92,1.76,CR,1724769258
348,artigas,-30.4,-56.4667,15.360000000000014,60,0,3.02,UY,1724769259
349,hami,42.8,93.45,32.77000000000004,18,12,2.31,CN,1724769260
350,shimoda,34.6667,138.95,25.670000000000016,89,94,2.58,JP,1724769261
351,pimentel,-6.8367,-79.9342,18.160000000000025,82,100,1.54,PE,1724769262
352,east ballina,-28.8667,153.5833,19.230000000000018,88,1,2.61,AU,1724769263
353,rada tilly,-45.9333,-67.5333,10.270000000000039,46,0,4.63,AR,1724769265
354,narasannapeta,18.4167,84.05,27.920000000000016,80,100,1.49,IN,1724769266
355,mili,6.0815,171.735,28.760000000000048,75,98,6.49,MH,1724769267
356,chunskiy,56.0815,99.6342,12.240000000000009,85,65,1.51,RU,1724769268
357,belyy yar,53.6039,91.3903,14.939999999999998,82,40,1.0,RU,1724769269
358,mega,4.05,38.3,20.75,54,85,7.28,ET,1724769270
359,utrik,11.2278,169.8474,28.430000000000007,81,99,8.18,MH,1724769271
360,liuduzhai,27.3661,110.935,23.840000000000032,95,89,2.45,CN,1724769272
361,luderitz,-26.6481,15.1594,16.55000000000001,69,0,8.89,NA,1724769273
362,wagar,16.1525,36.2032,27.650000000000034,64,98,3.06,SD,1724769274
363,naifaru,5.4444,73.3657,28.27000000000004,71,62,1.61,MV,1724769275
364,badger,64.8,-147.5333,8.53000000000003,85,75,3.09,US,1724769277
365,kiunga,-6.1219,141.2906,22.110000000000014,99,41,1.34,PG,1724769278
366,nogales,31.3086,-110.9422,26.25,64,0,2.06,MX,1724769248
367,okhotsk,59.3833,143.3,11.910000000000025,94,44,2.97,RU,1724769280
368,chabahar,25.2919,60.643,28.460000000000036,84,3,3.41,IR,1724769281
369,naze,28.3667,129.4833,25.510000000000048,93,100,19.44,JP,1724769217
370,santa cruz,-17.8,-63.1667,21.03000000000003,35,0,5.14,BO,1724769283
371,rudnichnyy,59.617,52.4703,21.160000000000025,75,43,2.31,RU,1724769284
372,minas de marcona,-15.2119,-75.1103,14.29000000000002,67,61,5.74,PE,1724769285
373,shambu,9.5667,37.1,13.450000000000045,92,85,1.08,ET,1724769286
374,puerto leguizamo,-0.1934,-74.7819,27.629999999999995,62,67,1.44,CO,1724769288
375,kilju,40.9642,129.3278,19.57000000000005,86,33,1.88,KP,1724769289
376,castillos,-34.1667,-53.8333,15.230000000000018,54,0,1.24,UY,1724769290
377,midvagur,62.0511,-7.1939,12.460000000000036,100,100,4.63,FO,1724769291
378,warrnambool,-38.3833,142.4833,12.930000000000007,90,100,9.1,AU,1724769292
379,haiku-pauwela,20.9219,-156.3051,21.600000000000023,85,20,3.09,US,1724769293
380,mana,5.6592,-53.7767,30.75,63,29,3.01,GF,1724769294
381,smithers,54.7804,-127.1743,8.180000000000007,87,75,1.54,CA,1724769296
382,wynyard,-41.0,145.7167,9.650000000000034,93,100,6.51,AU,1724769298
383,tukrah,32.5341,20.5791,29.77000000000004,61,1,4.54,LY,1724769299
384,sao jose da coroa grande,-8.8978,-35.1478,27.090000000000032,67,71,6.04,BR,1724769300
385,lethem,3.3803,-59.7968,24.760000000000048,87,100,0.35,GY,1724769301
386,salahonda,2.1019,-78.7217,26.03000000000003,83,12,0.66,CO,1724769302
387,papao,-17.75,-149.55,19.82000000000005,71,100,8.33,PF,1724769303
388,makhambet,47.6667,51.5833,27.689999999999998,24,0,6.36,KZ,1724769304
389,princeville,45.7668,-61.2985,23.120000000000005,73,0,3.09,CA,1724769305
390,douentza,14.9951,-2.9517,38.74000000000001,29,100,5.97,ML,1724769306
391,zag,46.9441,99.165,15.689999999999998,44,26,1.04,MN,1724769308
392,baniachang,24.5167,91.3667,27.29000000000002,86,79,2.77,BD,1724769309
393,luza,60.6308,47.2512,22.430000000000007,71,52,1.98,RU,1724769310
394,sagarejo,41.734,45.3315,27.58000000000004,43,0,2.6,GE,1724769311
395,gloucester,51.8657,-2.2431,24.03000000000003,54,20,4.63,GB,1724769312
396,manado,1.487,124.8455,25.430000000000007,94,20,1.03,ID,1724769313
397,simanggang,1.2472,111.4528,25.99000000000001,94,89,1.03,MY,1724769314
398,kobryn,52.2138,24.3564,28.810000000000002,43,60,5.87,BY,1724769315
399,santa ana,33.7456,-117.8678,20.5,89,75,1.54,US,1724769156
400,carnarvon,-24.8667,113.6333,19.57000000000005,70,0,6.86,AU,1724769317
401,holualoa,19.6228,-155.9522,20.910000000000025,83,0,2.57,US,1724769319
402,mugia,43.1041,-9.2179,20.510000000000048,72,3,3.66,ES,1724769320
403,luocheng,29.3848,104.0286,29.230000000000018,69,68,0.97,CN,1724769321
404,vila franca do campo,37.7167,-25.4333,26.230000000000018,59,1,5.25,PT,1724769322
405,gubkinskiy,64.434,76.5026,17.420000000000016,72,84,1.39,RU,1724769323
406,vila velha,-20.3297,-40.2925,20.970000000000027,75,75,6.17,BR,1724769042
407,sheregesh,52.9209,87.9869,11.379999999999995,94,100,1.56,RU,1724769325
408,motygino,58.1831,94.7592,12.640000000000043,99,99,1.9,RU,1724769326
409,eduardo castex,-35.915,-64.2945,15.840000000000032,38,7,4.08,AR,1724769327
410,conkal,21.0667,-89.5333,30.510000000000048,79,75,3.09,MX,1724769329
411,ouarzazat,30.9189,-6.8934,37.160000000000025,7,20,1.54,MA,1724769330
412,nabire,-3.3667,135.4833,24.760000000000048,93,100,1.32,ID,1724769331
413,satipo,-11.2522,-74.6386,27.939999999999998,52,79,1.07,PE,1724769332
414,bontang,0.1333,117.5,25.650000000000034,88,69,3.29,ID,1724769333
415,severo-yeniseyskiy,60.3725,93.0408,11.550000000000011,99,100,1.09,RU,1724769334
416,ribeira brava,32.65,-17.0667,27.29000000000002,64,4,2.13,PT,1724769335
417,gurupa,-1.405,-51.64,36.85000000000002,36,6,0.62,BR,1724769336
418,mudgee,-32.5943,149.5871,7.470000000000027,87,2,1.33,AU,1724769337
419,hailey,43.5196,-114.3153,7.920000000000016,61,0,6.17,US,1724769342
420,el porvenir,13.7617,-87.3458,29.33000000000004,61,79,0.63,HN,1724769201
421,yelizovo,53.1873,158.3805,12.080000000000041,76,75,2.0,RU,1724769344
422,bubaque,11.2833,-15.8333,27.32000000000005,82,64,6.2,GW,1724769345
423,cadale,2.7603,46.3222,26.450000000000045,81,31,6.85,SO,1724769346
424,cusseta,32.3054,-84.7727,29.700000000000045,75,54,2.52,US,1724769348
425,yuzhno-kurilsk,44.0306,145.8556,20.24000000000001,99,100,5.22,RU,1724769349
426,oranjemund,-28.55,16.4333,15.800000000000011,71,86,5.58,NA,1724769350
427,ceres,37.5949,-120.9577,20.590000000000032,39,0,2.02,US,1724769351
428,broome,42.2506,-75.833,24.090000000000032,81,0,2.57,US,1724769352
429,persembe,41.0656,37.7714,26.680000000000007,77,10,1.94,TR,1724769353
430,kasungu,-13.0333,33.4833,25.77000000000004,35,81,4.28,MW,1724769354
431,yigo village,13.5361,144.8886,27.629999999999995,88,20,2.06,GU,1724769355
432,rio hato,8.3833,-80.1667,27.75,83,40,2.06,PA,1724769356
433,kharp,66.8014,65.8081,15.740000000000009,69,33,1.46,RU,1724769358
434,ke-macina,13.9623,-5.3572,37.620000000000005,34,98,2.36,ML,1724769359
435,kalianget,-7.05,113.9333,26.960000000000036,74,96,3.9,ID,1724769360
436,carutapera,-1.195,-46.02,29.879999999999995,68,94,4.21,BR,1724769361
437,reggane,26.7158,0.1714,45.32000000000005,9,2,2.83,DZ,1724769362
438,matias barbosa,-21.8692,-43.3194,19.99000000000001,64,64,1.85,BR,1724769363
439,fort mcmurray,56.7268,-111.381,16.77000000000004,59,100,8.75,CA,1724769364
440,ishigaki,24.3448,124.1572,27.07000000000005,89,56,2.06,JP,1724769365
441,tossa de mar,41.7325,2.9338,28.900000000000034,40,14,2.82,ES,1724769367
442,sao joao da barra,-21.6403,-41.0511,20.05000000000001,55,100,5.31,BR,1724769368
443,praia da vitoria,38.7333,-27.0667,26.140000000000043,65,20,5.52,PT,1724769369
444,kutiyana,21.6233,69.9817,25.460000000000036,94,100,10.1,IN,1724769370
445,la serena,-29.9078,-71.2542,10.730000000000018,100,100,2.06,CL,1724769219
446,taunggyi,20.7833,97.0333,18.620000000000005,97,100,1.58,MM,1724769372
447,abbeville,50.1,1.8333,27.49000000000001,36,31,3.66,FR,1724769185
448,mantua,45.1667,10.7833,31.340000000000032,58,23,5.6,IT,1724769374
449,anloga,5.7947,0.8973,25.310000000000002,85,73,7.95,GH,1724769375
450,rokiskis,55.9667,25.5833,21.840000000000032,47,35,3.38,LT,1724769376
451,nelson bay,-32.7167,152.15,15.0,86,51,1.79,AU,1724769378
452,novaya igirma,57.1334,103.9112,14.240000000000009,72,100,4.63,RU,1724769379
453,mountain home,43.133,-115.6912,12.710000000000036,58,0,4.63,US,1724769380
454,kasongo-lunda,-6.4667,16.8167,39.06,8,6,1.1,CD,1724769381
455,puerto deseado,-47.7503,-65.8938,6.53000000000003,55,0,1.75,AR,1724769382
456,verkhnevilyuysk,63.4453,120.3167,9.260000000000048,61,100,1.94,RU,1724769383
457,grand falls-windsor,48.9332,-55.6649,24.879999999999995,51,97,2.45,CA,1724769384
458,acheng,45.5454,126.977,16.590000000000032,91,12,1.94,CN,1724769385
459,uzgen,40.7699,73.3007,23.460000000000036,21,11,1.55,KG,1724769386
460,loiza,18.4313,-65.8802,32.700000000000045,71,20,3.6,PR,1724769388
461,gamba,-2.65,10.0,25.720000000000027,71,86,4.69,GA,1724769389
462,yemetsk,63.4721,41.7941,19.890000000000043,47,99,3.48,RU,1724769390
463,bandarbeyla,9.4942,50.8122,25.680000000000007,79,27,12.61,SO,1724769391
464,veinticinco de mayo,-35.4323,-60.1727,16.100000000000023,59,0,1.79,AR,1724769180
465,nizhneangarsk,55.7833,109.55,11.950000000000045,76,51,2.08,RU,1724769393
466,waingapu,-9.6567,120.2641,24.510000000000048,80,100,2.69,ID,1724769394
467,jamaame,0.0697,42.745,26.170000000000016,78,90,5.48,SO,1724769395
468,al bayda',32.7627,21.7551,26.180000000000007,60,0,6.26,LY,1724769396
469,tazacorte,28.629,-17.9293,25.640000000000043,85,100,4.12,ES,1724769397
470,al ghayzah,16.2079,52.176,27.480000000000018,80,92,2.64,YE,1724769399
471,tindouf,27.6711,-8.1474,44.25,7,0,6.69,DZ,1724769400
472,iguape,-24.7081,-47.5553,16.210000000000036,63,28,2.6,BR,1724769401
473,kaa-khem,51.6833,94.7333,18.83000000000004,34,99,2.39,RU,1724769402
474,canutama,-6.5339,-64.3831,34.879999999999995,28,1,1.8,BR,1724769403
475,al jawf,29.5,38.75,37.98000000000002,16,1,5.15,SA,1724769404
476,bintulu,3.1667,113.0333,25.230000000000018,88,40,1.54,MY,1724769405
477,tofol,5.3248,163.0078,27.090000000000032,79,98,1.39,FM,1724769406
478,arauca,7.0847,-70.7591,27.0,89,75,2.57,CO,1724769407
479,bhamo,24.2667,97.2333,24.840000000000032,94,100,0.6,MM,1724769408
480,vianopolis,-16.7419,-48.5164,28.620000000000005,27,0,3.8,BR,1724769410
481,suleja,9.1758,7.1808,29.55000000000001,90,88,3.62,NG,1724769411
482,loa janan,-0.583,117.095,23.57000000000005,96,51,1.28,ID,1724769412
483,lautoka,-17.6167,177.4667,19.920000000000016,83,20,2.57,FJ,1724769413
484,mokhotlong,-29.2894,29.0675,16.80000000000001,14,0,7.63,LS,1724769414
485,shevchenkove,49.6959,37.1735,31.189999999999998,23,95,5.14,UA,1724769415
486,jaru,-10.4389,-62.4664,33.860000000000014,21,0,1.65,BR,1724769416
487,markala,13.7021,-6.0659,36.47000000000003,41,92,4.89,ML,1724769417
488,magadan,59.5667,150.8,10.110000000000014,98,100,2.39,RU,1724769418
489,mabaruma,8.2,-59.7833,31.640000000000043,65,0,1.84,GY,1724769419
490,hobyo,5.3505,48.5268,25.82000000000005,83,3,12.22,SO,1724769421
491,port hedland,-20.3167,118.5667,22.03000000000003,73,6,4.12,AU,1724769422
492,sinabang,2.4803,96.3801,23.720000000000027,91,100,3.48,ID,1724769423
493,minot,48.2325,-101.2963,16.120000000000005,82,100,0.0,US,1724769424
494,kirensk,57.7853,108.1119,13.480000000000018,89,100,5.01,RU,1724769193
495,el playon,7.4713,-73.2031,27.120000000000005,60,48,2.04,CO,1724769426
496,revda,56.801,59.9303,15.430000000000007,83,11,2.24,RU,1724769427
497,funafuti,-8.5243,179.1942,28.0,83,40,1.03,TV,1724769428
498,gerash,27.6652,54.1371,42.08000000000004,21,0,1.53,IR,1724769429
499,ta`u,-14.2336,-169.5144,25.52000000000004,83,15,4.62,AS,1724769431
500,nuku'alofa,-21.1333,-175.2,17.189999999999998,94,20,0.51,TO,1724769432
501,chilaw,7.5758,79.7953,28.129999999999995,80,100,7.66,LK,1724769433
502,pangai,-19.8,-174.35,22.28000000000003,74,2,2.47,TO,1724769434
503,kushiro,42.975,144.3747,21.53000000000003,100,100,5.66,JP,1724769435
504,port saint john's,-31.6229,29.5448,28.310000000000002,36,0,2.88,ZA,1724769436
505,merizo village,13.2658,144.6691,28.32000000000005,82,81,3.5,GU,1724769438
506,kosamba,21.4833,72.95,25.82000000000005,88,100,7.69,IN,1724769439
507,martapura,-3.4167,114.85,23.910000000000025,90,67,0.15,ID,1724769440
508,lihue,21.9789,-159.3672,25.77000000000004,73,75,6.69,US,1724769180
509,alice springs,-23.7,133.8833,18.75,42,12,3.09,AU,1724769443
510,itupiranga,-5.1347,-49.3267,36.700000000000045,27,40,0.71,BR,1724769444
511,derzhavinsk,51.1,66.3167,18.629999999999995,47,64,5.65,KZ,1724769445
512,fortaleza,-3.7227,-38.5247,30.610000000000014,76,20,8.75,BR,1724769421
513,bakanas,44.8081,76.2772,25.52000000000004,17,100,4.6,KZ,1724769447
514,bafoulabe,13.8065,-10.8321,31.430000000000007,71,89,5.67,ML,1724769448
515,klyavlino,54.2649,52.0267,18.960000000000036,64,0,1.42,RU,1724769449
516,tosontsengel,48.7567,98.2839,14.439999999999998,39,100,0.92,MN,1724769450
517,tahe,52.3333,124.7333,13.670000000000016,74,15,1.54,CN,1724769452
518,poronaysk,49.2167,143.1167,15.0,93,100,1.14,RU,1724769453
519,kangding,30.0513,101.9603,18.33000000000004,97,94,2.09,CN,1724769454
520,noumea,-22.2763,166.4572,19.260000000000048,79,1,3.96,NC,1724769456
521,tibanbang,6.6315,126.1055,27.100000000000023,84,100,2.33,PH,1724769457
522,nemuro,43.3236,145.575,19.75,98,100,11.75,JP,1724769458
523,leon,21.1167,-101.6667,18.03000000000003,61,60,1.57,MX,1724769316
524,khomeyn,33.6423,50.0789,29.870000000000005,17,73,6.45,IR,1724769460
525,pinhao,-25.6956,-51.6597,19.629999999999995,23,0,0.81,BR,1724769303
526,sisimiut,66.9395,-53.6735,6.800000000000011,83,100,1.67,GL,1724769463
527,manacapuru,-3.2997,-60.6206,31.560000000000002,42,13,0.76,BR,1724769464
528,wenling,28.3669,121.36,27.80000000000001,84,80,1.26,CN,1724769465
529,sabang,5.8933,95.3214,28.480000000000018,69,100,9.48,ID,1724769466
530,kentau,43.5206,68.5094,25.05000000000001,20,2,4.95,KZ,1724769467
531,torbat-e heydariyeh,35.274,59.2195,30.230000000000018,14,89,4.51,IR,1724769468
532,kenora,49.8167,-94.4337,15.54000000000002,77,75,5.14,CA,1724769469
533,elburg,52.4475,5.8431,26.170000000000016,49,71,3.68,NL,1724769470
534,arroyito,-31.4202,-63.05,17.28000000000003,32,0,4.08,AR,1724769455
535,tangalle,6.024,80.7911,26.460000000000036,81,23,4.6,LK,1724769473
536,cannonvale,-20.2833,148.7,21.660000000000025,81,35,4.07,AU,1724769474
537,wucheng,29.6008,118.175,24.160000000000025,97,98,1.53,CN,1724769475
538,selfoss,63.9331,-20.9971,15.020000000000039,64,97,1.4,IS,1724769476
539,porto novo,6.4965,2.6036,26.900000000000034,72,82,6.52,BJ,1724769478
540,kotlas,61.2611,46.6556,21.05000000000001,52,58,2.2,RU,1724769480
541,muravlenko,63.7898,74.523,17.230000000000018,66,66,3.01,RU,1724769482
542,mandalgovi,45.7625,106.2708,19.720000000000027,70,27,3.97,MN,1724769483
543,karratha,-20.7377,116.8463,24.140000000000043,62,4,6.09,AU,1724769484
544,iza,48.2152,23.3287,20.510000000000048,72,100,1.12,UA,1724769485
545,ceeldheer,3.8488,47.1806,27.010000000000048,74,17,8.88,SO,1724769486
546,springbok,-29.6643,17.8865,9.82000000000005,70,100,10.78,ZA,1724769487
547,kuraymah,18.55,31.85,35.700000000000045,37,77,2.91,SD,1724769488
548,talodi,10.6325,30.3797,23.640000000000043,85,93,1.24,SD,1724769489
549,myanaung,18.2833,95.3167,25.510000000000048,90,100,0.94,MM,1724769490
550,riberalta,-10.9833,-66.1,22.110000000000014,49,0,0.0,BO,1724769492
551,polyarnyye zori,67.3661,32.4981,13.150000000000034,55,13,6.83,RU,1724769493
552,dryden,49.7833,-92.7503,15.160000000000025,72,0,6.17,CA,1724769494
553,levelland,33.5873,-102.378,25.49000000000001,42,61,2.55,US,1724769495
554,gadzhiyevo,69.2551,33.3362,15.220000000000027,57,90,11.98,RU,1724769496
555,pocone,-16.2567,-56.6228,32.57000000000005,15,0,0.72,BR,1724769498
556,muurame,62.1333,25.6667,15.310000000000002,53,93,4.23,FI,1724769499
557,malango,-2.9627,119.9001,18.420000000000016,100,45,0.63,ID,1724769500
558,yangshuo,24.7808,110.4897,26.970000000000027,80,42,0.07,CN,1724769502
559,mbalmayo,3.5167,11.5,27.74000000000001,59,44,3.05,CM,1724769503
560,karelichy,53.5653,26.1378,26.29000000000002,60,47,4.49,BY,1724769504
561,sabzevar,36.2126,57.6819,38.60000000000002,13,20,6.17,IR,1724769505
562,port isabel,26.0734,-97.2086,31.710000000000036,64,12,2.48,US,1724769506
563,hong kong,22.2855,114.1577,31.29000000000002,78,96,2.24,HK,1724769214
564,beau vallon,-20.4189,57.6953,19.129999999999995,88,40,9.26,MU,1724769508
565,tanumah,27.1,44.1333,40.629999999999995,10,10,5.38,SA,1724769509
566,hammerfest,70.6634,23.6821,11.25,82,75,12.35,NO,1724769510
567,nova vicosa,-17.8919,-39.3719,24.07000000000005,75,82,8.06,BR,1724769511
568,vadso,70.0744,29.7487,14.090000000000032,58,75,12.86,NO,1724769513
569,plastun,44.7561,136.2939,15.07000000000005,94,83,2.83,RU,1724769514
570,kayangel,8.0823,134.7173,27.810000000000002,77,100,0.48,PW,1724769515
571,fortuna,40.5982,-124.1573,14.960000000000036,96,100,0.0,US,1724769517
572,chamical,-30.36,-66.314,16.79000000000002,32,0,4.5,AR,1724769518
573,puqi,29.7167,113.8833,23.450000000000045,85,7,1.96,CN,1724769519
574,rexburg,43.826,-111.7897,13.230000000000018,93,0,1.54,US,1724769520
575,south venice,27.0531,-82.4243,31.670000000000016,83,20,4.12,US,1724769522
576,padangsidempuan,1.3667,99.2667,21.05000000000001,99,100,2.12,ID,1724769523
577,ambon,-3.6954,128.1814,27.150000000000034,95,40,1.54,ID,1724769524
578,bayanhongor,46.7167,100.1167,13.160000000000025,43,32,1.37,MN,1724769525
579,larkird,35.4894,66.6641,17.980000000000018,29,0,2.57,AF,1724769526
580,kaiapoi,-43.3783,172.6401,9.490000000000009,87,35,3.09,NZ,1724769528
581,machico,32.7,-16.7667,26.510000000000048,65,40,5.66,PT,1724769529
582,krasnokamsk,58.0802,55.7541,21.090000000000032,74,24,2.01,RU,1724769530
583,temryuk,45.2722,37.3811,27.870000000000005,55,100,2.34,RU,1724769531
