City_ID,City,Lat,Lng,Max Temp,Humidity,Cloudiness,Wind Speed,Country,Date
0,carnarvon,-24.8667,113.6333,20.450000000000045,76,35,6.71,AU,1724434218
1,labrador city,52.9463,-66.9114,20.950000000000045,46,75,0.0,CA,1724434406
2,blackmans bay,-43.0167,147.3167,9.07000000000005,92,100,0.45,AU,1724434407
3,hawaiian paradise park,19.5933,-154.9731,24.29000000000002,98,100,0.45,US,1724434408
4,adamstown,-25.066,-130.1015,18.610000000000014,62,100,5.06,PN,1724434409
5,puerto ayora,-0.7393,-90.3518,20.860000000000014,87,85,2.68,EC,1724434410
6,normal,40.5142,-88.9906,27.24000000000001,50,0,2.06,US,1724434411
7,opochka,56.7105,28.6617,13.840000000000032,77,82,3.08,RU,1724434412
8,udachny,66.4167,112.4,13.939999999999998,92,100,2.85,RU,1724434413
9,xilin hot,43.9667,116.0333,17.400000000000034,77,10,2.67,CN,1724434415
10,aripuana,-9.1667,-60.6333,40.26000000000005,15,30,1.39,BR,1724434416
11,portland,45.5234,-122.6762,15.910000000000025,90,100,1.54,US,1724433900
12,hithadhoo,-0.6,73.0833,28.470000000000027,75,72,3.86,MV,1724434418
13,salaberry-de-valleyfield,45.2501,-74.1325,23.010000000000048,68,37,3.09,CA,1724434266
14,tiksi,71.6872,128.8694,4.689999999999998,91,92,1.26,RU,1724434420
15,rantauprapat,2.1,99.8333,22.49000000000001,99,100,0.73,ID,1724434421
16,ust-nera,64.5667,143.2,14.660000000000025,55,96,1.86,RU,1724434422
17,khandyga,62.6667,135.6,11.520000000000039,96,67,1.19,RU,1724434423
18,coquimbo,-29.9533,-71.3436,16.100000000000023,45,0,4.63,CL,1724434201
19,bilibino,68.0546,166.4372,2.7600000000000477,90,100,0.46,RU,1724434426
20,namibe,-15.1961,12.1522,19.08000000000004,84,11,6.39,AO,1724434427
21,afaahiti,-17.75,-149.2833,23.78000000000003,72,25,7.94,PF,1724434428
22,marsh harbour,26.5412,-77.0636,29.78000000000003,74,50,5.86,BS,1724434429
23,waitangi,-43.9535,-176.5597,12.120000000000005,91,100,5.36,NZ,1724434430
24,aasiaat,68.7098,-52.8699,3.4700000000000273,98,100,3.57,GL,1724434431
25,bredasdorp,-34.5322,20.0403,11.57000000000005,86,0,1.76,ZA,1724434432
26,weno,7.4515,151.8468,27.970000000000027,83,40,0.0,FM,1724434433
27,geraldton,-28.7667,114.6,17.230000000000018,82,20,6.69,AU,1724434434
28,puerto natales,-51.7236,-72.4875,9.25,66,20,3.09,CL,1724434436
29,punta arenas,-53.15,-70.9167,9.060000000000002,66,75,9.26,CL,1724434437
30,port-aux-francais,-49.35,70.2167,0.9399999999999977,63,85,14.06,TF,1724434438
31,st. john's,47.5649,-52.7093,17.860000000000014,83,75,8.23,CA,1724434437
32,wailua homesteads,22.0669,-159.378,25.439999999999998,85,75,8.23,US,1724434440
33,georgetown,5.4112,100.3354,25.960000000000036,93,40,1.03,MY,1724434370
34,la sarre,48.8002,-79.1996,24.629999999999995,45,69,4.43,CA,1724434442
35,invercargill,-46.4,168.35,8.340000000000032,84,61,8.05,NZ,1724434443
36,haiku-pauwela,20.9219,-156.3051,25.02000000000004,93,40,7.2,US,1724434444
37,kavieng,-2.5744,150.7967,27.090000000000032,79,92,4.29,PG,1724434445
38,sivas,39.7916,37.0019,20.350000000000023,77,40,5.14,TR,1724434447
39,newman,37.3138,-121.0208,21.140000000000043,60,35,0.89,US,1724434448
40,margaret river,-33.95,115.0667,14.430000000000007,76,62,10.1,AU,1724434449
41,puerto gaitan,4.3133,-72.0816,31.49000000000001,54,52,1.3,CO,1724434333
42,pachino,36.7186,15.0907,27.129999999999995,71,59,3.44,IT,1724434451
43,santa cruz de tenerife,28.4682,-16.2546,25.340000000000032,75,40,11.32,ES,1724434157
44,badger,64.8,-147.5333,8.950000000000045,92,100,2.57,US,1724434453
45,stanley,54.868,-1.6985,15.160000000000025,67,40,6.17,GB,1724434454
46,bengkulu,-3.8004,102.2655,24.170000000000016,95,84,2.54,ID,1724434455
47,gao,16.6362,1.637,35.18000000000001,34,100,4.14,ML,1724434456
48,missoula,47.0166,-113.8009,22.260000000000048,35,0,2.68,US,1724433648
49,torghay,49.6339,63.4981,16.710000000000036,72,62,6.5,KZ,1724434459
50,papatowai,-46.5619,169.4708,7.760000000000048,92,52,5.9,NZ,1724434460
51,kolonia town,6.964,158.206,28.700000000000045,76,78,4.64,FM,1724434461
52,buala,-8.145,159.5921,25.870000000000005,84,88,4.63,SB,1724434462
53,talnakh,69.4865,88.3972,11.170000000000016,87,72,2.31,RU,1724434463
54,berezovyy,51.6667,135.7,12.04000000000002,96,100,1.41,RU,1724434464
55,port alfred,-33.5906,26.891,17.32000000000005,78,3,1.34,ZA,1724434465
56,fale old settlement,-9.3852,-171.2468,27.120000000000005,81,55,8.7,TK,1724434466
57,grytviken,-54.2811,-36.5092,-2.3100000000000023,75,13,5.95,GS,1724434238
58,kidatu,-7.6992,36.9572,23.910000000000025,43,36,0.86,TZ,1724434469
59,hamilton,39.1834,-84.5333,29.0,38,0,2.57,US,1724434006
60,margate,51.3813,1.3862,22.710000000000036,65,87,0.45,GB,1724434286
61,bethel,41.3712,-73.414,26.700000000000045,44,0,2.57,US,1724434323
62,zyryanovsk,49.7386,84.2719,16.760000000000048,51,78,1.28,KZ,1724434473
63,kargasok,59.0556,80.8572,14.350000000000023,91,100,2.81,RU,1724434474
64,saipan,15.1355,145.701,29.390000000000043,74,40,4.12,MP,1724434475
65,yellowknife,62.456,-114.3525,15.230000000000018,87,100,5.66,CA,1724434476
66,edinburgh of the seven seas,-37.0676,-12.3116,12.150000000000034,75,66,10.66,SH,1724434245
67,lebu,-37.6167,-73.65,9.439999999999998,69,11,2.73,CL,1724434193
68,college,64.8569,-147.8028,8.990000000000009,89,100,2.57,US,1724434480
69,isafjordur,66.0755,-23.124,6.020000000000039,81,100,9.26,IS,1724434481
70,san patricio,28.017,-97.5169,33.97000000000003,50,58,5.33,US,1724434482
71,utrik,11.2278,169.8474,27.910000000000025,81,94,8.94,MH,1724434483
72,anadyr,64.75,177.4833,7.28000000000003,87,75,2.68,RU,1724434484
73,takeo,10.9167,104.8333,27.850000000000023,78,99,1.88,KH,1724434485
74,praia da vitoria,38.7333,-27.0667,30.140000000000043,66,20,5.08,PT,1724434486
75,jamestown,42.097,-79.2353,24.450000000000045,49,0,3.6,US,1724434488
76,wang saphung,17.301,101.7685,24.379999999999995,93,100,0.93,TH,1724434489
77,port lincoln,-34.7333,135.8667,14.700000000000045,80,0,5.08,AU,1724434490
78,alice springs,-23.7,133.8833,22.75,33,1,3.6,AU,1724434491
79,ilulissat,69.2167,-51.1,7.010000000000048,93,100,3.6,GL,1724434269
80,iqaluit,63.7506,-68.5145,9.850000000000023,87,100,1.54,CA,1724434212
81,bonthe,7.5264,-12.505,26.870000000000005,79,92,5.33,SL,1724434494
82,bairnsdale,-37.8333,147.6167,12.25,88,89,0.45,AU,1724434495
83,shingu,33.7333,135.9833,25.900000000000034,94,100,1.96,JP,1724434496
84,ribeira grande,38.5167,-28.7,28.220000000000027,74,40,5.66,PT,1724434498
85,klyuchi,52.2667,79.1667,17.760000000000048,78,28,2.86,RU,1724434499
86,fort beaufort,-32.7748,26.6338,20.55000000000001,20,29,3.03,ZA,1724434500
87,olonkinbyen,70.9221,-8.7187,5.57000000000005,99,100,3.96,SJ,1724434501
88,kone,-21.0595,164.8658,17.730000000000018,77,62,2.26,NC,1724434502
89,khandud,36.9513,72.318,16.33000000000004,36,35,2.7,AF,1724434503
90,ingeniero jacobacci,-41.3427,-69.5448,4.680000000000007,50,98,7.97,AR,1724434504
91,albany,42.6001,-73.9662,25.80000000000001,55,18,0.45,US,1724434310
92,nkove,-7.95,30.85,24.600000000000023,46,8,0.93,TZ,1724434507
93,laojunmiao,39.8333,97.7333,22.53000000000003,28,95,5.34,CN,1724434508
94,urengoy,65.9667,78.3667,10.420000000000016,86,34,1.69,RU,1724434509
95,inhambane,-23.865,35.3833,18.03000000000003,62,80,4.76,MZ,1724434510
96,callao,-12.0667,-77.15,17.620000000000005,82,100,2.57,PE,1724434281
97,alofi,-19.0595,-169.9187,21.939999999999998,94,75,4.63,NU,1724434512
98,lazaro cardenas,17.9583,-102.2,29.260000000000048,71,99,1.38,MX,1724434513
99,bojnurd,37.4747,57.329,25.970000000000027,22,0,4.12,IR,1724434514
100,dondo,-19.6094,34.7431,22.730000000000018,70,30,4.41,MZ,1724434515
101,powell,40.1578,-83.0752,28.430000000000007,38,0,2.57,US,1724434516
102,trairi,-3.2778,-39.2689,28.77000000000004,54,47,8.3,BR,1724434517
103,linden,6.0,-58.3,30.700000000000045,63,43,1.25,GY,1724434519
104,tailai,46.3833,123.4,19.629999999999995,76,83,2.97,CN,1724434520
105,west island,-12.1568,96.8225,26.99000000000001,74,75,5.14,CC,1724434521
106,port elizabeth,-33.918,25.5701,18.160000000000025,91,1,4.12,ZA,1724434522
107,hwacheon,38.1061,127.7067,21.310000000000002,98,0,0.68,KR,1724434523
108,karratha,-20.7377,116.8463,22.189999999999998,77,0,4.3,AU,1724434525
109,la mira,18.035,-102.3266,28.74000000000001,73,99,0.96,MX,1724434526
110,iskateley,67.6803,53.1512,14.28000000000003,72,100,3.86,RU,1724434528
111,tralee,52.2704,-9.7026,14.140000000000043,94,75,3.09,IE,1724434529
112,zhosaly,45.4878,64.0781,23.510000000000048,34,2,4.63,KZ,1724434530
113,port blair,11.6667,92.75,28.02000000000004,83,40,1.03,IN,1724434531
114,polyarnyy,69.1989,33.4478,16.140000000000043,86,61,6.31,RU,1724434532
115,srinagar,34.0833,74.8167,18.980000000000018,54,0,1.07,IN,1724434371
116,manay,7.215,126.5397,24.30000000000001,87,98,2.91,PH,1724434534
117,aswan,24.0934,32.907,40.610000000000014,20,0,0.0,EG,1724434535
118,ushuaia,-54.8,-68.3,8.810000000000002,66,0,5.66,AR,1724434275
119,savannakhet,16.566,104.751,25.629999999999995,87,100,1.15,LA,1724434537
120,yorosso,12.3536,-4.7761,27.27000000000004,78,88,3.19,ML,1724434539
121,puerto aysen,-45.4,-72.7,7.350000000000023,86,100,0.95,CL,1724434540
122,pathein,16.7833,94.7333,25.640000000000043,90,100,2.52,MM,1724434541
123,longyearbyen,78.2186,15.6401,11.910000000000025,71,20,3.6,SJ,1724434542
124,san antonio,29.4241,-98.4936,36.93000000000001,49,40,3.09,US,1724434481
125,dunedin,-45.8742,170.5036,11.0,46,65,2.87,NZ,1724434544
126,sainte-rose,16.3324,-61.6979,32.02000000000004,58,75,6.17,GP,1724434545
127,saldanha,-33.0117,17.9442,15.03000000000003,88,0,4.9,ZA,1724434546
128,pauini,-7.7136,-66.9764,40.05000000000001,19,83,1.8,BR,1724434548
129,bati,11.1833,40.0167,19.480000000000018,74,100,2.06,ET,1724434549
130,vallenar,-28.5708,-70.7581,20.560000000000002,14,7,1.82,CL,1724434550
131,gua musang,4.8823,101.9644,23.200000000000045,98,100,0.58,MY,1724434551
132,vilyuysk,63.7553,121.6247,14.170000000000016,85,92,1.97,RU,1724434552
133,quebo,11.3333,-14.9333,27.180000000000007,87,98,3.43,GW,1724434553
134,thompson,55.7435,-97.8558,18.090000000000032,82,75,1.54,CA,1724434554
135,myitkyina,25.3833,97.4,23.78000000000003,100,51,0.53,MM,1724434539
136,adrar,20.5022,-10.0711,42.24000000000001,10,11,5.9,MR,1724434556
137,lucapa,-8.4192,20.7447,24.53000000000003,20,25,1.17,AO,1724434558
138,eyl,7.9803,49.8164,27.210000000000036,66,67,9.79,SO,1724434559
139,conception bay south,47.4999,-52.9981,17.730000000000018,85,100,5.48,CA,1724434560
140,colonia,50.9333,6.95,23.870000000000005,67,40,5.14,DE,1724434561
141,talavera,15.6167,120.9333,25.99000000000001,87,100,0.53,PH,1724434562
142,brasov,45.75,25.3333,22.970000000000027,44,63,1.81,RO,1724434563
143,jacksonville,30.3322,-81.6556,31.689999999999998,75,75,5.66,US,1724434564
144,wynyard,-41.0,145.7167,11.220000000000027,97,100,3.13,AU,1724434566
145,wuwei,37.9281,102.6414,22.420000000000016,65,56,0.5,CN,1724434567
146,briare,47.6334,2.7438,26.450000000000045,69,82,4.11,FR,1724434568
147,kodiak,57.79,-152.4072,12.730000000000018,67,0,4.12,US,1724434569
148,chimala,-8.85,34.0167,18.870000000000005,57,30,3.14,TZ,1724434570
149,avarua,-21.2078,-159.775,21.03000000000003,88,75,3.6,CK,1724434571
150,uturoa,-16.7333,-151.4333,25.220000000000027,75,88,9.61,PF,1724434572
151,ilam,26.9167,87.9167,21.879999999999995,94,77,1.55,NP,1724434573
152,quimili,-27.6333,-62.4167,17.930000000000007,33,0,4.53,AR,1724434574
153,usogorsk,63.4106,48.6872,13.470000000000027,75,12,2.29,RU,1724434576
154,cantley,53.5,-1.05,20.55000000000001,55,41,4.96,GB,1724434577
155,strezhevoy,60.7333,77.5889,15.670000000000016,61,100,4.85,RU,1724434578
156,preobrazheniye,42.9019,133.9064,18.610000000000014,82,0,2.56,RU,1724434579
157,enewetak,11.3474,162.3373,29.0,75,55,6.79,MH,1724434580
158,warman,52.3168,-106.5679,20.950000000000045,68,40,3.09,CA,1724434581
159,saynshand,44.8824,110.1163,21.340000000000032,52,1,5.79,MN,1724434582
160,lubawka,50.7046,16.0003,22.600000000000023,56,97,2.18,PL,1724434584
161,praya,14.9215,-23.5087,30.30000000000001,66,40,7.2,CV,1724434586
162,lompoc,34.6391,-120.4579,21.620000000000005,77,20,3.6,US,1724434587
163,kas,36.2018,29.6377,27.620000000000005,82,20,0.93,TR,1724434588
164,vernon,50.2581,-119.2691,23.850000000000023,41,61,0.51,CA,1724434589
165,new norfolk,-42.7826,147.0587,9.400000000000034,98,100,0.58,AU,1724434590
166,nuuk,64.1835,-51.7216,6.340000000000032,100,100,3.6,GL,1724434514
167,kasongo-lunda,-6.4667,16.8167,28.189999999999998,18,87,1.97,CD,1724434593
168,mhamid,29.82,-5.72,42.84000000000003,9,0,6.84,MA,1724434594
169,hermanus,-34.4187,19.2345,14.330000000000041,82,0,6.51,ZA,1724434597
170,severnoye,56.3491,78.3619,12.200000000000045,99,70,2.68,RU,1724434598
171,roma,43.2128,-75.4557,24.650000000000034,57,20,1.54,US,1724434557
172,dudinka,69.4058,86.1778,9.840000000000032,89,49,3.48,RU,1724434600
173,qaqortoq,60.7167,-46.0333,9.520000000000039,68,88,5.41,GL,1724434601
174,sur,22.5667,59.5289,29.58000000000004,65,5,6.04,OM,1724434602
175,salalah,17.0151,54.0924,25.05000000000001,94,75,1.54,OM,1724434603
176,pontes e lacerda,-15.2261,-59.3353,39.410000000000025,15,34,2.79,BR,1724434604
177,murzuq,25.9155,13.9184,38.0,20,0,5.13,LY,1724434606
178,kenai,60.5544,-151.2583,11.680000000000007,87,0,3.09,US,1724434607
179,constantia,44.1833,28.65,26.379999999999995,71,8,2.75,RO,1724434412
180,mirny,62.5353,113.9611,14.78000000000003,77,100,1.36,RU,1724434609
181,isangel,-19.55,169.2667,19.49000000000001,74,0,3.34,VU,1724434452
182,kangaba,11.9333,-8.4167,27.210000000000036,86,89,2.08,ML,1724434611
183,yeonggwang,35.275,126.5094,24.310000000000002,95,0,0.83,KR,1724434612
184,caleta de carquin,-11.0925,-77.6267,18.57000000000005,74,71,5.06,PE,1724434613
185,lihue,21.9789,-159.3672,25.77000000000004,81,75,8.23,US,1724434410
186,moa,20.6569,-74.9403,31.660000000000025,69,86,5.95,CU,1724434617
187,kingston,17.997,-76.7936,31.53000000000003,70,75,6.17,JM,1724434600
188,iacu,-12.7672,-40.2117,29.33000000000004,42,52,4.09,BR,1724434619
189,vorkuta,67.5,64.0,7.260000000000048,87,95,2.47,RU,1724434620
190,carutapera,-1.195,-46.02,30.0,58,81,6.03,BR,1724434621
191,alliance,40.9153,-81.1059,25.5,55,88,0.59,US,1724434622
192,changling,44.2653,124.0005,18.460000000000036,88,95,2.94,CN,1724434623
193,golere,16.2557,-14.1017,38.379999999999995,34,100,2.99,SN,1724434624
194,keflavik,64.0049,-22.5624,9.240000000000009,71,75,15.43,IS,1724434625
195,hwange,-18.3693,26.5019,21.33000000000004,30,0,1.41,ZW,1724434627
196,vozhega,60.4725,40.2213,17.660000000000025,77,45,1.83,RU,1724434628
197,mandimba,-14.3548,35.6515,20.57000000000005,50,80,4.31,MZ,1724434629
198,queenstown,-31.8976,26.8753,16.80000000000001,24,48,3.37,ZA,1724434630
199,cockburn town,21.4612,-71.1419,28.760000000000048,83,81,7.84,TC,1724434631
200,shenjiamen,29.9576,122.298,26.950000000000045,92,88,5.23,CN,1724434632
201,severo-yeniseyskiy,60.3725,93.0408,9.300000000000011,96,5,1.45,RU,1724434633
202,ta`u,-14.2336,-169.5144,25.720000000000027,74,34,9.94,AS,1724434634
203,chicoana,-25.1009,-65.5331,10.03000000000003,35,18,4.8,AR,1724434528
204,vilyuchinsk,52.9306,158.4028,13.150000000000034,98,100,5.57,RU,1724434480
205,poronaysk,49.2167,143.1167,14.29000000000002,95,100,4.6,RU,1724434638
206,remire-montjoly,4.9167,-52.2667,33.02000000000004,58,40,3.6,GF,1724434639
207,tanabe,33.7333,135.3667,26.610000000000014,93,100,1.24,JP,1724434640
208,metkovic,43.0542,17.6483,26.24000000000001,59,9,0.62,HR,1724434641
209,brasileia,-11.0161,-68.7481,35.25,49,75,1.54,BR,1724434612
210,muisne,0.6,-80.0333,25.07000000000005,77,99,4.45,EC,1724434644
211,timbuktu,16.7735,-3.0074,30.680000000000007,46,83,2.22,ML,1724434645
212,nova sintra,14.8667,-24.7167,27.54000000000002,78,16,2.93,CV,1724434647
213,touros,-5.1989,-35.4608,27.430000000000007,62,38,7.92,BR,1724434439
214,santa marta de ortigueira,43.6833,-7.85,22.920000000000016,29,1,1.34,ES,1724434649
215,clodomira,-27.5744,-64.1311,17.410000000000025,33,1,3.48,AR,1724434650
216,shakawe,-18.3667,21.85,20.53000000000003,17,1,3.08,BW,1724434651
217,tazovsky,67.4667,78.7,10.310000000000002,90,78,2.17,RU,1724434652
218,santa luzia,-19.7697,-43.8514,32.60000000000002,24,20,3.6,BR,1724434653
219,saint-philippe,-21.3585,55.7679,21.900000000000034,71,34,2.85,RE,1724434654
220,pingliang,35.5392,106.6861,22.060000000000002,82,41,1.71,CN,1724434655
221,morden,49.1919,-98.1014,26.920000000000016,61,2,2.06,CA,1724434656
222,okhotsk,59.3833,143.3,11.580000000000041,74,100,1.3,RU,1724434658
223,kapuskasing,49.4169,-82.4331,25.05000000000001,47,75,6.69,CA,1724434659
224,san-pedro,4.7485,-6.6363,24.439999999999998,85,86,4.56,CI,1724434660
225,piranhas,-16.4269,-51.8222,37.710000000000036,14,5,3.81,BR,1724434662
226,shache,38.4167,77.2406,24.710000000000036,40,9,3.99,CN,1724434663
227,al mindak,20.1588,41.2834,18.29000000000002,96,66,2.41,SA,1724434664
228,chernomorskoye,45.5039,32.6997,25.980000000000018,66,0,5.98,UA,1724434665
229,zaozersk,69.4005,32.4476,16.79000000000002,85,11,4.45,RU,1724434667
230,kailua-kona,19.6406,-155.9956,26.439999999999998,65,0,3.09,US,1724434668
231,sendhwa,21.6833,75.1,24.54000000000002,90,100,1.57,IN,1724434669
232,ribadesella,43.4614,-5.0596,22.30000000000001,84,4,2.82,ES,1724434670
233,beau vallon,-20.4189,57.6953,21.129999999999995,88,40,2.06,MU,1724434671
234,sisimiut,66.9395,-53.6735,6.330000000000041,89,100,1.26,GL,1724434672
235,saint-pierre,-21.3393,55.4781,20.82000000000005,68,0,2.57,RE,1724434673
236,camapua,-19.5314,-54.0439,35.99000000000001,18,33,7.3,BR,1724434674
237,ad dilam,23.9915,47.1627,38.629999999999995,16,4,2.21,SA,1724434677
238,aberdeen,57.1437,-2.0981,16.410000000000025,66,20,5.66,GB,1724434678
239,gagarin,55.5529,34.9954,14.920000000000016,71,71,1.92,RU,1724434679
240,montepuez,-13.1256,38.9997,22.930000000000007,52,29,3.9,MZ,1724434680
241,tazacorte,28.629,-17.9293,24.54000000000002,78,20,6.69,ES,1724434681
242,tobol'sk,58.2,68.2667,11.980000000000018,88,100,7.09,RU,1724434484
243,ko pha ngan,9.7578,100.0291,25.05000000000001,82,100,7.2,TH,1724434683
244,atvidaberg,58.2015,15.9977,17.77000000000004,73,100,6.07,SE,1724434684
245,petropavlovsk-kamchatsky,53.0452,158.6483,12.330000000000041,100,75,1.0,RU,1724434685
246,guiuan,11.0333,125.7247,27.189999999999998,81,99,0.93,PH,1724434686
247,ancud,-41.8697,-73.8203,8.120000000000005,80,52,2.94,CL,1724434688
248,itamaraca,-7.7478,-34.8256,26.560000000000002,65,29,6.0,BR,1724434689
249,niquero,20.0431,-77.5828,32.89000000000004,59,57,1.45,CU,1724434690
250,kristiansund,63.1115,7.732,14.510000000000048,77,75,2.06,NO,1724434691
251,sola,-13.8833,167.55,24.960000000000036,79,16,9.71,VU,1724434692
252,palikir - national government center,6.9248,158.1611,28.04000000000002,76,80,4.6,FM,1724434693
253,yuzhno-kurilsk,44.0306,145.8556,21.120000000000005,96,67,7.13,RU,1724434695
254,taroudant,30.4703,-8.877,27.79000000000002,43,0,7.19,MA,1724434696
255,bajil,15.0584,43.2851,27.379999999999995,81,100,5.86,YE,1724434698
256,new baltimore,42.6811,-82.7369,26.189999999999998,53,75,4.12,US,1724434699
257,luderitz,-26.6481,15.1594,12.720000000000027,97,15,1.89,NA,1724434700
258,pielavesi,63.2333,26.75,15.379999999999995,94,100,1.83,FI,1724434701
259,tofol,5.3248,163.0078,29.24000000000001,69,34,4.66,FM,1724434702
260,pionerskiy,54.9508,20.2275,20.910000000000025,62,100,7.09,RU,1724434703
261,vorgashor,67.5833,63.95,7.100000000000023,88,96,2.66,RU,1724434704
262,nagqu,31.5,92.0,3.920000000000016,83,59,1.91,CN,1724434705
263,kloulklubed,7.0419,134.2556,29.010000000000048,74,88,5.26,PW,1724434706
264,galveston,29.3669,-94.9669,34.99000000000001,63,0,4.63,US,1724434708
265,katabu,-4.9333,122.5167,22.560000000000002,92,92,1.41,ID,1724434709
266,alaghsas,17.0187,8.0168,31.939999999999998,51,0,4.12,NE,1724434710
267,teluknaga,-6.0989,106.6381,27.32000000000005,78,20,2.06,ID,1724434711
268,uliastay,47.7417,96.8444,13.140000000000043,38,35,2.71,MN,1724434712
269,sabang,5.8933,95.3214,28.03000000000003,73,100,2.95,ID,1724434713
270,zhanaozen,43.3,52.8,28.30000000000001,25,35,9.25,KZ,1724434714
271,ghat,24.9647,10.1728,38.09000000000003,18,0,5.1,LY,1724434715
272,dolinsk,47.35,142.8,17.450000000000045,97,99,2.48,RU,1724434716
273,manistee,44.2445,-86.3242,23.420000000000016,58,20,6.69,US,1724434699
274,g'uzor,38.6214,66.2522,24.700000000000045,18,1,1.12,UZ,1724434719
275,bubaque,11.2833,-15.8333,27.420000000000016,84,66,6.46,GW,1724434721
276,kayangel,8.0823,134.7173,29.08000000000004,74,98,5.78,PW,1724434722
277,zeya,53.75,127.2667,13.350000000000023,84,54,0.85,RU,1724434723
278,vadso,70.0744,29.7487,20.090000000000032,45,0,5.14,NO,1724434724
279,port mathurin,-19.6833,63.4167,22.620000000000005,87,100,6.56,MU,1724434725
280,dehloran,32.6941,47.2679,40.18000000000001,11,0,2.42,IR,1724434726
281,talara,-4.5772,-81.2719,22.420000000000016,73,75,8.23,PE,1724434728
282,taltal,-25.4,-70.4833,19.08000000000004,47,4,3.64,CL,1724434729
283,flin flon,54.7682,-101.865,17.910000000000025,68,75,2.06,CA,1724434730
284,cooper's town,26.8667,-77.5167,29.32000000000005,75,24,4.35,BS,1724434731
285,celestun,20.8667,-90.4,31.28000000000003,61,12,6.42,MX,1724434732
286,dzhambeyty,50.2536,52.595,20.840000000000032,44,2,3.6,KZ,1724434733
287,takoradi,4.8845,-1.7554,23.78000000000003,91,100,5.38,GH,1724434734
288,torit,4.4133,32.5678,20.74000000000001,93,64,0.88,SS,1724434735
289,korla,41.7597,86.1469,24.860000000000014,42,100,3.4,CN,1724434736
290,boguchany,58.3814,97.4531,11.680000000000007,93,3,1.25,RU,1724434737
291,qusmuryn,52.4503,64.6311,14.110000000000014,86,91,8.08,KZ,1724434739
292,veraval,20.9,70.3667,28.0,88,100,3.85,IN,1724434740
293,itaituba,-4.2761,-55.9836,35.09000000000003,52,20,3.6,BR,1724434741
294,susuman,62.7833,148.1667,8.110000000000014,68,12,0.67,RU,1724434742
295,pisco,-13.7,-76.2167,19.03000000000003,68,75,7.72,PE,1724434743
296,valparaiso,-33.0393,-71.6273,13.890000000000043,74,40,2.06,CL,1724434441
297,santa elena de uairen,4.6167,-61.1333,25.24000000000001,66,71,4.84,VE,1724434745
298,aykhal,66.0,111.5,12.620000000000005,94,100,3.26,RU,1724434632
299,banda aceh,5.5577,95.3222,25.870000000000005,83,89,3.34,ID,1724434747
300,east london,-33.0153,27.9116,17.52000000000004,72,0,6.69,ZA,1724434749
301,kapa'a,22.0752,-159.319,26.180000000000007,81,75,8.23,US,1724434636
302,mejit,10.2753,170.8646,28.370000000000005,79,53,9.03,MH,1724434751
303,ed damer,17.5928,33.9592,30.379999999999995,51,100,5.9,SD,1724434752
304,cabedelo,-6.9811,-34.8339,28.370000000000005,70,5,7.32,BR,1724434753
305,ceeldheer,3.8488,47.1806,25.5,78,72,8.43,SO,1724434754
306,sibsagar,26.9833,94.6333,25.870000000000005,94,43,1.63,IN,1724434755
307,guatrache,-37.6678,-63.5302,13.29000000000002,36,59,3.31,AR,1724434758
308,burutu,5.3509,5.5076,25.04000000000002,86,100,5.45,NG,1724434759
309,la passe,45.5549,-0.8967,22.29000000000002,79,51,3.34,FR,1724434760
310,mogocha,53.7333,119.7667,13.850000000000023,73,100,1.6,RU,1724434761
311,cidreira,-30.1811,-50.2056,12.400000000000034,89,100,4.54,BR,1724434545
312,lethbridge,49.7,-112.8186,19.27000000000004,59,75,2.06,CA,1724434763
313,kimbe,-5.5502,150.1429,23.879999999999995,93,100,2.16,PG,1724434764
314,batamshinskiy,50.5594,58.2747,14.710000000000036,76,11,2.93,KZ,1724434765
315,dassa-zoume,7.75,2.1833,22.900000000000034,98,100,2.75,BJ,1724434766
316,kiunga,-6.1219,141.2906,23.77000000000004,99,99,1.01,PG,1724434768
317,bakchar,57.0186,82.0711,13.960000000000036,96,98,3.38,RU,1724434769
318,palu,-0.8917,119.8707,24.379999999999995,99,100,1.25,ID,1724434770
319,bella vista,36.4295,-94.2316,32.49000000000001,53,40,5.66,US,1724434771
320,akureyri,65.6835,-18.0878,4.960000000000036,87,100,9.77,IS,1724434772
321,mbanza kongo,-6.267,14.2401,27.090000000000032,40,67,2.14,AO,1724434773
322,waingapu,-9.6567,120.2641,23.930000000000007,83,3,3.34,ID,1724434775
323,singera,46.9131,28.9775,23.390000000000043,31,0,3.6,MD,1724434776
324,puerto deseado,-47.7503,-65.8938,7.850000000000023,62,100,4.87,AR,1724434777
325,lubang,13.8584,120.124,29.510000000000048,72,99,1.74,PH,1724434778
326,minas de matahambre,22.5887,-83.9447,32.170000000000016,53,31,4.03,CU,1724434780
327,minas de marcona,-15.2119,-75.1103,10.120000000000005,91,100,8.31,PE,1724434781
328,springbok,-29.6643,17.8865,10.520000000000039,72,19,2.2,ZA,1724434782
329,kruisfontein,-34.0033,24.7314,21.370000000000005,15,1,4.09,ZA,1724434717
330,jaguaruna,-28.615,-49.0256,13.600000000000023,96,100,6.04,BR,1724434785
331,myskhako,44.6714,37.7433,20.52000000000004,77,16,2.99,RU,1724434786
332,san pedro pochutla,15.7333,-96.4667,30.950000000000045,53,100,2.9,MX,1724434787
333,loreto,22.2667,-101.9667,24.629999999999995,36,4,4.27,MX,1724434788
334,motueka,-41.1333,173.0167,11.170000000000016,94,100,2.23,NZ,1724434789
335,huilong,31.8111,121.655,26.590000000000032,89,0,3.16,CN,1724434790
336,crane,31.3974,-102.3501,37.97000000000003,16,9,3.83,US,1724434791
337,igarka,67.4667,86.5833,9.870000000000005,87,13,3.42,RU,1724434792
338,kabalo,-6.05,26.9167,29.33000000000004,22,0,2.15,CD,1724434794
339,ketchikan,55.3422,-131.6461,14.260000000000048,77,75,2.57,US,1724434795
340,hammerfest,70.6634,23.6821,19.25,63,40,2.57,NO,1724434796
341,el alto,-4.2714,-81.2147,20.57000000000005,71,48,8.8,PE,1724434797
342,las amilpas,16.3667,-94.6167,33.920000000000016,49,92,3.9,MX,1724434798
343,fiambala,-27.6871,-67.6149,19.970000000000027,9,2,7.16,AR,1724434800
344,tura,25.5198,90.2201,24.140000000000043,95,83,2.56,IN,1724434721
345,aljezur,37.3191,-8.8033,21.060000000000002,83,8,5.78,PT,1724434802
346,griffith,41.5284,-87.4237,26.08000000000004,44,0,3.09,US,1724434804
347,zhongshu,24.5167,103.7667,17.230000000000018,97,97,1.0,CN,1724434805
348,acarau,-2.8856,-40.12,29.57000000000005,52,15,10.55,BR,1724434806
349,papao,-17.75,-149.55,23.82000000000005,74,56,9.6,PF,1724434807
350,carovigno,40.708,17.655,27.100000000000023,62,18,2.15,IT,1724434808
351,srandakan,-7.9386,110.2506,22.400000000000034,86,93,1.96,ID,1724434809
352,butte,39.6499,-121.5677,19.55000000000001,48,20,8.75,US,1724434810
353,mana,5.6592,-53.7767,30.420000000000016,65,54,5.83,GF,1724434811
354,whitehorse,60.7161,-135.0538,9.430000000000007,86,75,2.57,CA,1724434788
355,san andres,12.5847,-81.7006,31.010000000000048,74,20,3.6,CO,1724434809
356,howard springs,-12.497,131.047,23.950000000000045,92,97,1.23,AU,1724434815
357,francistown,-21.17,27.5079,15.620000000000005,57,0,6.92,BW,1724434816
358,kashgar,39.4547,75.9797,24.560000000000002,46,0,3.0,CN,1724434817
359,la'ie,21.6477,-157.9253,25.660000000000025,78,60,3.58,US,1724434819
360,mitsamiouli,-11.3847,43.2844,25.83000000000004,69,20,3.68,KM,1724434820
361,ironwood,46.4547,-90.171,20.450000000000045,73,100,3.6,US,1724434821
362,ubari,26.5921,12.7805,36.08000000000004,26,0,4.41,LY,1724434822
363,umea,63.8284,20.2597,16.960000000000036,88,75,7.2,SE,1724434823
364,la ronge,55.1001,-105.2842,18.140000000000043,59,20,3.6,CA,1724434825
365,kolwezi,-10.7148,25.4667,17.720000000000027,26,0,2.33,CD,1724434826
366,padang,-0.9492,100.3543,23.03000000000003,90,75,1.83,ID,1724434642
367,north battleford,52.7834,-108.2847,19.05000000000001,77,0,5.66,CA,1724434828
368,coahuayana de hidalgo,18.7,-103.6583,31.910000000000025,63,83,2.45,MX,1724434829
369,bokoro,12.3807,17.0568,27.970000000000027,67,83,2.94,TD,1724434830
370,diamantina,-18.2494,-43.6003,28.370000000000005,23,0,4.1,BR,1724434804
371,beneditinos,-5.45,-42.3667,37.76000000000005,14,13,3.4,BR,1724434832
372,murehwa,-17.6432,31.784,12.990000000000009,71,50,3.56,ZW,1724434833
373,masterton,-40.9597,175.6575,11.760000000000048,85,100,3.21,NZ,1724434699
374,bugyi,47.2275,19.1466,28.52000000000004,28,70,2.54,HU,1724434836
375,palmas,-10.2128,-48.3603,35.93000000000001,23,0,5.66,BR,1724434837
376,rancho palos verdes,33.7445,-118.387,24.060000000000002,73,75,1.79,US,1724434838
377,aldama,22.9167,-98.0667,32.660000000000025,48,57,3.14,MX,1724434839
378,eastham,41.8301,-69.9739,26.170000000000016,55,40,3.09,US,1724434840
379,fort mcmurray,56.7268,-111.381,23.77000000000004,53,0,4.63,CA,1724434669
380,fuglafjordur,62.244,-6.814,10.200000000000045,74,20,6.08,FO,1724434842
381,yaren,-0.5472,166.916,28.670000000000016,67,48,4.92,NR,1724434843
382,kuta,-8.7233,115.1723,24.970000000000027,94,20,4.12,ID,1724434844
383,nar'yan-mar,67.6713,53.087,14.300000000000011,72,100,3.86,RU,1724434836
384,shimokizukuri,40.8061,140.3861,26.400000000000034,86,7,2.94,JP,1724434847
385,santiago atitlan,14.6382,-91.229,24.350000000000023,53,67,2.91,GT,1724434848
386,holualoa,19.6228,-155.9522,24.370000000000005,68,0,3.09,US,1724434792
387,puerto colombia,10.9878,-74.9547,33.05000000000001,73,72,4.28,CO,1724434850
388,salym,60.0625,71.4789,11.460000000000036,95,100,5.18,RU,1724434851
389,soio,-6.1349,12.3689,22.370000000000005,86,74,3.0,AO,1724434852
390,suva,-18.1416,178.4415,22.710000000000036,94,75,4.12,FJ,1724434853
391,acapulco de juarez,16.8634,-99.8901,30.900000000000034,62,75,2.57,MX,1724434685
392,arraial do cabo,-22.9661,-42.0278,33.98000000000002,40,0,5.14,BR,1724434856
393,prince george,53.9166,-122.753,15.689999999999998,77,40,2.57,CA,1724434857
394,katsuren-haebaru,26.3369,127.8719,29.010000000000048,90,0,1.54,JP,1724434698
395,kaihua,23.3687,104.28,17.450000000000045,98,98,1.78,CN,1724434859
396,mostaganem,35.9311,0.0892,27.150000000000034,64,78,5.4,DZ,1724434860
397,kralendijk,12.15,-68.2667,32.99000000000001,62,75,6.69,BQ,1724434570
398,tirmiz,37.2242,67.2783,28.05000000000001,28,0,2.06,UZ,1724434862
399,broken hill,-31.95,141.4333,17.720000000000027,47,27,2.46,AU,1724434864
400,pasuquin,18.3328,120.6177,27.05000000000001,81,4,1.46,PH,1724434866
401,isla mujeres,21.2311,-86.731,33.03000000000003,69,79,4.32,MX,1724434867
402,selkirk,50.1436,-96.8845,25.660000000000025,79,0,1.79,CA,1724434803
403,aksuat,48.7167,83.7,22.120000000000005,29,58,2.36,KZ,1724434869
404,harrismith,-28.2728,29.1295,11.360000000000014,45,0,2.49,ZA,1724434870
405,huarmey,-10.0681,-78.1522,20.07000000000005,69,58,5.6,PE,1724434758
406,jezowe,50.3749,22.1275,20.99000000000001,47,97,2.96,PL,1724434873
407,sirte,31.2089,16.5887,28.430000000000007,71,0,6.22,LY,1724434875
408,mwingi,-0.9344,38.0601,22.5,53,94,4.6,KE,1724434877
409,ulladulla,-35.35,150.4667,14.189999999999998,64,100,3.65,AU,1724434878
410,tolanaro,-25.0319,46.9987,19.04000000000002,68,75,8.23,MG,1724434761
411,watford city,47.8022,-103.2832,27.920000000000016,57,0,8.75,US,1724434880
412,mount pleasant,32.7941,-79.8626,26.08000000000004,73,20,6.17,US,1724434881
413,rutana,-3.8667,30.1,19.590000000000032,44,100,1.79,BI,1724434883
414,macon,39.8667,-88.9668,27.360000000000014,44,0,1.54,US,1724434884
415,at-bashi,41.1702,75.8106,15.420000000000016,35,43,1.32,KG,1724434885
416,sitia,35.2,26.0986,26.510000000000048,67,0,5.59,GR,1724434886
417,pacific grove,36.6177,-121.9166,20.210000000000036,73,40,1.54,US,1724434887
418,jiangkou,25.4872,119.1986,26.30000000000001,92,41,0.95,CN,1724434888
419,jayapura,-2.5333,140.7,26.660000000000025,96,100,2.95,ID,1724434626
420,shchigry,51.8755,36.9043,23.260000000000048,48,100,1.79,RU,1724434890
421,el nido,11.1858,119.3956,26.189999999999998,94,99,3.18,PH,1724434892
422,sungai penuh,-2.0833,101.3833,18.230000000000018,98,81,1.2,ID,1724434893
423,kodinar,20.7903,70.7031,27.32000000000005,90,100,3.86,IN,1724434894
424,batouri,4.4333,14.3667,21.07000000000005,97,88,0.92,CM,1724434895
425,lady frere,-31.7031,27.2329,18.360000000000014,27,19,5.54,ZA,1724434896
426,pariaman,-0.619,100.12,23.03000000000003,88,82,1.94,ID,1724434897
427,fort bragg,35.139,-79.006,25.850000000000023,52,20,4.63,US,1724434898
428,constitucion,-35.3333,-72.4167,10.160000000000025,78,70,4.6,CL,1724434558
429,borogontsy,62.6683,131.1683,13.25,86,60,1.67,RU,1724434900
430,tegueste,28.5167,-16.3167,21.640000000000043,74,40,11.32,ES,1724434902
431,port hedland,-20.3167,118.5667,22.03000000000003,94,0,4.12,AU,1724434903
432,nikolayevsk-on-amure,53.1406,140.73,12.480000000000018,98,100,3.66,RU,1724434905
433,itoman,26.1247,127.6694,29.010000000000048,91,75,2.57,JP,1724434873
434,surovikino,48.6078,42.8486,27.04000000000002,25,79,7.3,RU,1724434907
435,atafu village,-8.5421,-172.5159,27.200000000000045,80,69,8.89,TK,1724434908
436,el calafate,-50.3408,-72.2768,5.0,77,52,1.65,AR,1724434668
437,aranda de duero,41.6704,-3.6892,31.900000000000034,18,45,4.97,ES,1724434910
438,yantzaza,-3.8278,-78.7594,28.910000000000025,58,55,3.1,EC,1724434912
439,tvoroyri,61.5556,-6.8111,10.300000000000011,82,32,9.56,FO,1724434913
440,goniri,11.4833,12.3144,25.870000000000005,77,43,4.74,NG,1724434914
441,pitimbu,-7.4706,-34.8086,26.24000000000001,69,9,6.95,BR,1724434655
442,male,4.1748,73.5089,27.970000000000027,83,75,2.06,MV,1724434916
443,copala,16.65,-98.9833,29.910000000000025,61,79,2.59,MX,1724434917
444,san antonio de pale,-1.4014,5.6325,23.400000000000034,82,100,5.07,GQ,1724434918
445,mohyliv-podilskyi,48.446,27.7982,22.230000000000018,30,56,2.74,UA,1724434919
446,idri,27.5,13.2667,35.920000000000016,27,0,2.71,LY,1724434920
447,nguigmi,14.2495,13.1092,28.379999999999995,68,97,5.1,NE,1724434921
448,kudahuvadhoo,2.6708,72.8944,28.08000000000004,75,100,2.88,MV,1724434808
449,nadi,-17.8,177.4167,18.0,88,20,0.0,FJ,1724434924
450,selfoss,63.9331,-20.9971,7.800000000000011,80,99,8.87,IS,1724434925
451,olyokminsk,60.3736,120.4264,14.240000000000009,83,92,1.31,RU,1724434926
452,the pas,53.8251,-101.2541,20.010000000000048,56,40,3.09,CA,1724434927
453,thinadhoo,0.5333,72.9333,28.230000000000018,74,67,2.39,MV,1724434928
454,bluffton,32.2371,-80.8604,27.010000000000048,65,100,9.26,US,1724434856
455,dwarka,22.2394,68.9678,28.480000000000018,79,46,6.12,IN,1724434930
456,tanjungagung,-3.9333,103.8,23.170000000000016,69,9,1.76,ID,1724434931
457,santa ana,33.7456,-117.8678,25.870000000000005,62,20,1.79,US,1724434730
458,bontang,0.1333,117.5,24.400000000000034,91,99,3.43,ID,1724434934
459,winslow,35.0242,-110.6974,26.100000000000023,57,0,3.09,US,1724434935
460,sungjibaegam,41.2428,128.7989,11.78000000000003,93,11,1.27,KP,1724434936
461,broome,42.2506,-75.833,24.890000000000043,54,40,4.12,US,1724434645
462,kununurra,-15.7667,128.7333,20.99000000000001,88,46,0.0,AU,1724434881
463,mananara,-16.1667,49.7667,21.350000000000023,85,50,2.9,MG,1724434939
464,codrington,-38.2667,141.9667,13.860000000000014,85,3,7.44,AU,1724434940
465,lospalos,-8.5186,127.0025,19.82000000000005,98,90,1.79,TL,1724434941
466,ulanhot,46.0833,122.0833,18.960000000000036,95,96,2.29,CN,1724434942
467,hasaki,35.7333,140.8333,26.610000000000014,84,100,6.67,JP,1724434943
468,nova olinda do norte,-3.8881,-59.0942,40.460000000000036,17,88,2.25,BR,1724434945
469,arkhangel'sk,64.5401,40.5433,19.060000000000002,72,0,3.0,RU,1724434946
470,darien,41.752,-87.974,26.720000000000027,53,40,4.12,US,1724434947
471,alice,27.7523,-98.0697,34.85000000000002,52,0,4.12,US,1724434936
472,rongelap,11.1635,166.8941,28.0,83,27,9.12,MH,1724434950
473,bafata,12.1667,-14.75,28.810000000000002,88,79,1.21,GW,1724434951
474,morehead city,34.7229,-76.726,27.0,66,0,6.26,US,1724434952
475,ciudad lazaro cardenas,17.9583,-102.2,29.260000000000048,71,99,1.38,MX,1724434953
476,glace bay,46.1969,-59.957,20.99000000000001,70,75,5.14,CA,1724434955
477,leava,-14.3,-178.1667,26.140000000000043,78,33,10.72,WF,1724434956
478,stephenville,32.2207,-98.2023,39.03000000000003,37,0,3.6,US,1724434957
479,krasnoshchekovo,51.6708,82.7289,15.860000000000014,85,79,2.07,RU,1724434958
480,biltine,14.5333,20.9167,29.99000000000001,57,87,3.25,TD,1724434959
481,port isabel,26.0734,-97.2086,35.02000000000004,62,20,4.63,US,1724434960
482,gandi,12.9636,5.7434,25.890000000000043,73,98,2.52,NG,1724434961
483,sao joao da barra,-21.6403,-41.0511,31.05000000000001,77,6,10.56,BR,1724434962
484,lycksele,64.5954,18.6735,14.930000000000007,94,100,5.14,SE,1724434963
485,cabo san lucas,22.8909,-109.9124,32.64000000000004,62,0,2.06,MX,1724434965
486,manokwari,-0.8667,134.0833,25.410000000000025,79,86,1.94,ID,1724434966
487,bamboo flat,11.7,92.7167,28.05000000000001,83,40,1.03,IN,1724434967
488,chinde,26.8212,87.7095,24.120000000000005,92,47,1.44,NP,1724434968
489,namtsy,62.7161,129.6658,12.810000000000002,88,55,1.87,RU,1724434969
490,saint-mihiel,48.8875,5.551,21.33000000000004,78,99,3.73,FR,1724434970
491,maua,-23.6678,-46.4614,32.89000000000004,25,0,6.07,BR,1724434971
492,riberalta,-10.9833,-66.1,36.110000000000014,46,20,2.06,BO,1724434972
493,al hufuf,25.3646,49.5653,38.19,34,0,6.69,SA,1724434973
494,chonchi,-42.6128,-73.8092,10.07000000000005,88,75,1.74,CL,1724434974
495,prado,-17.3411,-39.2208,25.78000000000003,68,0,5.41,BR,1724434976
496,viedma,-40.8135,-62.9967,11.689999999999998,46,63,3.62,AR,1724434697
497,wailea,19.8858,-155.123,23.670000000000016,98,100,0.0,US,1724434978
498,calama,-22.4667,-68.9333,20.27000000000004,3,0,7.2,CL,1724434783
499,novy bydzov,50.2415,15.4908,23.950000000000045,58,44,1.91,CZ,1724434980
500,mar del plata,-38.0023,-57.5575,10.010000000000048,70,75,5.66,AR,1724434818
501,chibougamau,49.9168,-74.3659,22.79000000000002,40,0,6.17,CA,1724434982
502,puerto baquerizo moreno,-0.9,-89.6,21.55000000000001,73,75,7.72,EC,1724434983
503,nhamunda,-2.1861,-56.7131,39.31,25,80,2.18,BR,1724434984
504,loshnitsa,54.2789,28.7639,16.150000000000034,64,55,0.42,BY,1724434985
505,fisterra,42.9049,-9.2629,20.510000000000048,88,49,2.38,ES,1724434987
506,leongatha,-38.4833,145.95,17.840000000000032,59,87,4.92,AU,1724434988
507,tsiombe,-25.3,45.4833,15.25,59,53,3.02,MG,1724434989
508,stornoway,58.2093,-6.3865,12.980000000000018,72,20,7.72,GB,1724434990
509,abepura,-2.6333,140.5833,26.450000000000045,83,20,2.57,ID,1724434991
510,sitka,57.0531,-135.33,12.939999999999998,88,100,2.06,US,1724434440
511,vangaindrano,-23.35,47.6,19.120000000000005,65,56,3.44,MG,1724434993
512,den burg,53.0542,4.7972,18.980000000000018,63,100,2.57,NL,1724434994
513,sallisaw,35.4604,-94.7875,27.980000000000018,54,40,5.14,US,1724434995
514,bandarbeyla,9.4942,50.8122,25.150000000000034,83,100,13.14,SO,1724434996
515,guerrero negro,27.9769,-114.0611,24.660000000000025,58,6,6.0,MX,1724434999
516,sarmiento,-45.5882,-69.07,8.189999999999998,46,65,2.95,AR,1724435000
517,kharkhorin,47.1975,102.8238,12.970000000000027,60,2,1.85,MN,1724435001
518,pemba,-12.974,40.5178,25.390000000000043,88,20,6.17,MZ,1724435002
519,shohimardon,39.9839,71.8028,20.620000000000005,43,7,0.81,UZ,1724435003
520,porto novo,6.4965,2.6036,25.900000000000034,83,100,5.96,BJ,1724435004
521,baabda,33.8339,35.5442,27.430000000000007,70,40,1.54,LB,1724435005
522,hotan,37.0997,79.9269,23.629999999999995,42,50,2.4,CN,1724435007
523,ilha de mocambique,-15.0342,40.7358,22.700000000000045,65,10,3.99,MZ,1724435008
524,dakhla,23.6848,-15.958,24.010000000000048,69,2,14.4,EH,1724435009
525,tetyushi,54.9382,48.8366,17.230000000000018,68,9,0.51,RU,1724435010
526,belyy yar,53.6039,91.3903,13.939999999999998,88,0,2.0,RU,1724435012
527,fort st. john,56.2499,-120.8529,17.939999999999998,55,75,7.2,CA,1724435013
528,altamira,-3.2033,-52.2064,32.05000000000001,62,75,4.12,BR,1724435016
529,ust'-uda,54.1742,103.0304,11.860000000000014,91,0,0.15,RU,1724435017
530,ribeira brava,32.65,-17.0667,27.29000000000002,63,0,2.62,PT,1724435019
531,reyes,-14.3167,-67.3833,33.98000000000002,59,40,3.09,BO,1724435021
532,ibeto,10.4854,5.145,22.920000000000016,94,100,2.32,NG,1724435022
533,lake havasu city,34.4839,-114.3224,36.0,27,0,7.2,US,1724435023
534,sorong,-0.8833,131.25,25.590000000000032,87,100,4.76,ID,1724434860
535,strelka,58.0728,93.0344,12.260000000000048,93,37,0.92,RU,1724435026
536,novyy urengoy,66.0833,76.6333,10.980000000000018,86,67,2.83,RU,1724435027
537,karanja,20.4833,77.4833,24.74000000000001,87,100,2.33,IN,1724435028
538,bac lieu,9.285,105.7244,27.150000000000034,82,89,3.48,VN,1724435029
539,thunder bay,48.4001,-89.3168,19.99000000000001,83,100,1.54,CA,1724435030
540,santanyi,39.3546,3.1291,26.560000000000002,69,3,3.85,ES,1724435031
541,achinsk,56.2694,90.4993,13.580000000000041,78,57,2.9,RU,1724435032
542,westport,41.1415,-73.3579,27.260000000000048,49,0,4.63,US,1724434923
543,nouadhibou,20.931,-17.0347,26.99000000000001,65,1,9.26,MR,1724435035
544,tocopilla,-22.092,-70.1979,20.840000000000032,55,13,5.55,CL,1724435036
545,marshall,34.3834,-86.3333,29.100000000000023,54,0,2.57,US,1724434953
